{
"type": "FeatureCollection",
"name": "SNAP_Retailer_Location_data",
"crs": { "type": "name", "properties": { "name": "urn:ogc:def:crs:OGC:1.3:CRS84" } },
"features": [
{ "type": "Feature", "properties": { "Record_ID": 1392066, "Store_Name": "The Daily Market 001", "Store_Street_Address": "110 Savin Hill Ave", "Additonal_Address": null, "City": "Dorchester", "State": "MA", "Zip_Code": "02125", "Zip4": "1431", "County": "SUFFOLK", "Store_Type": "Supermarket", "Latitude": 42.311798, "Longitude": -71.053719, "Incentive_Program": null, "Grantee_Name": null, "ObjectId": 709 }, "geometry": { "type": "Point", "coordinates": [ -71.053719, 42.311798 ] } },
{ "type": "Feature", "properties": { "Record_ID": 255236, "Store_Name": "Kam Man Food", "Store_Street_Address": "219 Quincy Ave", "Additonal_Address": null, "City": "Quincy", "State": "MA", "Zip_Code": "02169", "Zip4": "    ", "County": "NORFOLK", "Store_Type": "Super Store", "Latitude": 42.241291, "Longitude": -70.991295, "Incentive_Program": null, "Grantee_Name": null, "ObjectId": 2279 }, "geometry": { "type": "Point", "coordinates": [ -70.991295, 42.241291 ] } },
{ "type": "Feature", "properties": { "Record_ID": 254208, "Store_Name": "Walmart 2902", "Store_Street_Address": "121 Worcester Rd", "Additonal_Address": null, "City": "Framingham", "State": "MA", "Zip_Code": "01701", "Zip4": "5348", "County": "MIDDLESEX", "Store_Type": "Super Store", "Latitude": 42.298828, "Longitude": -71.397881, "Incentive_Program": null, "Grantee_Name": null, "ObjectId": 2378 }, "geometry": { "type": "Point", "coordinates": [ -71.397881, 42.298828 ] } },
{ "type": "Feature", "properties": { "Record_ID": 234988, "Store_Name": "COMPARE SUPERMARKET", "Store_Street_Address": "153 Hawthorne St", "Additonal_Address": null, "City": "Chelsea", "State": "MA", "Zip_Code": "02150", "Zip4": "3242", "County": "SUFFOLK", "Store_Type": "Super Store", "Latitude": 42.392021, "Longitude": -71.034454, "Incentive_Program": null, "Grantee_Name": null, "ObjectId": 3348 }, "geometry": { "type": "Point", "coordinates": [ -71.034454, 42.392021 ] } },
{ "type": "Feature", "properties": { "Record_ID": 248773, "Store_Name": "Roche Bros Supermarkets Inc 105", "Store_Street_Address": "150 W Central St", "Additonal_Address": null, "City": "Natick", "State": "MA", "Zip_Code": "01760", "Zip4": "4106", "County": "MIDDLESEX", "Store_Type": "Supermarket", "Latitude": 42.28249, "Longitude": -71.376884, "Incentive_Program": null, "Grantee_Name": null, "ObjectId": 3741 }, "geometry": { "type": "Point", "coordinates": [ -71.376884, 42.28249 ] } },
{ "type": "Feature", "properties": { "Record_ID": 246285, "Store_Name": "Whole Foods Market 10026", "Store_Street_Address": "200 Alewife Brook Pkwy", "Additonal_Address": null, "City": "Cambridge", "State": "MA", "Zip_Code": "02138", "Zip4": "1102", "County": "MIDDLESEX", "Store_Type": "Super Store", "Latitude": 42.388546, "Longitude": -71.143051, "Incentive_Program": null, "Grantee_Name": null, "ObjectId": 3766 }, "geometry": { "type": "Point", "coordinates": [ -71.143051, 42.388546 ] } },
{ "type": "Feature", "properties": { "Record_ID": 268575, "Store_Name": "Crosby's Marketplace", "Store_Street_Address": "211 Sudbury Rd", "Additonal_Address": null, "City": "Concord", "State": "MA", "Zip_Code": "01742", "Zip4": "3498", "County": "MIDDLESEX", "Store_Type": "Super Store", "Latitude": 42.45472, "Longitude": -71.357323, "Incentive_Program": null, "Grantee_Name": null, "ObjectId": 3875 }, "geometry": { "type": "Point", "coordinates": [ -71.357323, 42.45472 ] } },
{ "type": "Feature", "properties": { "Record_ID": 236327, "Store_Name": "Trucchis Supermarket 4", "Store_Street_Address": "858 Bedford St", "Additonal_Address": null, "City": "Abington", "State": "MA", "Zip_Code": "02351", "Zip4": "1650", "County": "PLYMOUTH", "Store_Type": "Super Store", "Latitude": 42.127254, "Longitude": -70.949905, "Incentive_Program": null, "Grantee_Name": null, "ObjectId": 4222 }, "geometry": { "type": "Point", "coordinates": [ -70.949905, 42.127254 ] } },
{ "type": "Feature", "properties": { "Record_ID": 285074, "Store_Name": "Price Chopper Marlborough 162", "Store_Street_Address": "240 E Main St", "Additonal_Address": null, "City": "Marlborough", "State": "MA", "Zip_Code": "01752", "Zip4": "2669", "County": "MIDDLESEX", "Store_Type": "Supermarket", "Latitude": 42.351231, "Longitude": -71.534889, "Incentive_Program": null, "Grantee_Name": null, "ObjectId": 4300 }, "geometry": { "type": "Point", "coordinates": [ -71.534889, 42.351231 ] } },
{ "type": "Feature", "properties": { "Record_ID": 237865, "Store_Name": "Hannaford Supermarket & Pharmacy 8017", "Store_Street_Address": "55 Russell St", "Additonal_Address": null, "City": "Waltham", "State": "MA", "Zip_Code": "02451", "Zip4": "    ", "County": "MIDDLESEX", "Store_Type": "Super Store", "Latitude": 42.375977, "Longitude": -71.244568, "Incentive_Program": null, "Grantee_Name": null, "ObjectId": 4430 }, "geometry": { "type": "Point", "coordinates": [ -71.244568, 42.375977 ] } },
{ "type": "Feature", "properties": { "Record_ID": 226183, "Store_Name": "Stop & Shop 0015", "Store_Street_Address": "450 Paradise Rd", "Additonal_Address": "Ste 1", "City": "Swampscott", "State": "MA", "Zip_Code": "01907", "Zip4": "1378", "County": "ESSEX", "Store_Type": "Supermarket", "Latitude": 42.48193, "Longitude": -70.90239, "Incentive_Program": null, "Grantee_Name": null, "ObjectId": 4698 }, "geometry": { "type": "Point", "coordinates": [ -70.90239, 42.48193 ] } },
{ "type": "Feature", "properties": { "Record_ID": 259028, "Store_Name": "Stop & Shop 17", "Store_Street_Address": "495 Southern Artery", "Additonal_Address": null, "City": "Quincy", "State": "MA", "Zip_Code": "02169", "Zip4": "4610", "County": "NORFOLK", "Store_Type": "Supermarket", "Latitude": 42.253891, "Longitude": -70.995125, "Incentive_Program": null, "Grantee_Name": null, "ObjectId": 5210 }, "geometry": { "type": "Point", "coordinates": [ -70.995125, 42.253891 ] } },
{ "type": "Feature", "properties": { "Record_ID": 229501, "Store_Name": "FOODIE'S URBAN MARKET", "Store_Street_Address": "1421 Washington St", "Additonal_Address": null, "City": "Boston", "State": "MA", "Zip_Code": "02118", "Zip4": "2009", "County": "SUFFOLK", "Store_Type": "Super Store", "Latitude": 42.341137, "Longitude": -71.070633, "Incentive_Program": null, "Grantee_Name": null, "ObjectId": 5654 }, "geometry": { "type": "Point", "coordinates": [ -71.070633, 42.341137 ] } },
{ "type": "Feature", "properties": { "Record_ID": 262105, "Store_Name": "Stop & Shop 487", "Store_Street_Address": "700 Middle St", "Additonal_Address": null, "City": "E WEYMOUTH", "State": "MA", "Zip_Code": "02189", "Zip4": "    ", "County": "NORFOLK", "Store_Type": "Supermarket", "Latitude": 42.201115, "Longitude": -70.945633, "Incentive_Program": null, "Grantee_Name": null, "ObjectId": 5792 }, "geometry": { "type": "Point", "coordinates": [ -70.945633, 42.201115 ] } },
{ "type": "Feature", "properties": { "Record_ID": 276406, "Store_Name": "Star Market 3566", "Store_Street_Address": "1717 Beacon St", "Additonal_Address": null, "City": "Brookline", "State": "MA", "Zip_Code": "02445", "Zip4": "5301", "County": "NORFOLK", "Store_Type": "Supermarket", "Latitude": 42.338203, "Longitude": -71.139359, "Incentive_Program": null, "Grantee_Name": null, "ObjectId": 6081 }, "geometry": { "type": "Point", "coordinates": [ -71.139359, 42.338203 ] } },
{ "type": "Feature", "properties": { "Record_ID": 264258, "Store_Name": "Trader Joe's 503", "Store_Street_Address": "659 Worcester Rd", "Additonal_Address": null, "City": "Framingham", "State": "MA", "Zip_Code": "01701", "Zip4": "5223", "County": "MIDDLESEX", "Store_Type": "Supermarket", "Latitude": 42.298466, "Longitude": -71.424278, "Incentive_Program": null, "Grantee_Name": null, "ObjectId": 6614 }, "geometry": { "type": "Point", "coordinates": [ -71.424278, 42.298466 ] } },
{ "type": "Feature", "properties": { "Record_ID": 280645, "Store_Name": "Trader Joe's 510", "Store_Street_Address": "899 Boylston St", "Additonal_Address": null, "City": "Boston", "State": "MA", "Zip_Code": "02115", "Zip4": "3104", "County": "SUFFOLK", "Store_Type": "Supermarket", "Latitude": 42.3484, "Longitude": -71.083801, "Incentive_Program": null, "Grantee_Name": null, "ObjectId": 6740 }, "geometry": { "type": "Point", "coordinates": [ -71.083801, 42.3484 ] } },
{ "type": "Feature", "properties": { "Record_ID": 281089, "Store_Name": "Stop & Shop 49", "Store_Street_Address": "700 Pleasant St", "Additonal_Address": null, "City": "Watertown", "State": "MA", "Zip_Code": "02472", "Zip4": "2421", "County": "MIDDLESEX", "Store_Type": "Supermarket", "Latitude": 42.367332, "Longitude": -71.213531, "Incentive_Program": null, "Grantee_Name": null, "ObjectId": 6933 }, "geometry": { "type": "Point", "coordinates": [ -71.213531, 42.367332 ] } },
{ "type": "Feature", "properties": { "Record_ID": 294502, "Store_Name": "SHAW'S SUPERMARKET 1416", "Store_Street_Address": "121 Memorial Pkwy", "Additonal_Address": null, "City": "Randolph", "State": "MA", "Zip_Code": "02368", "Zip4": "4511", "County": "NORFOLK", "Store_Type": "Supermarket", "Latitude": 42.162956, "Longitude": -71.045235, "Incentive_Program": null, "Grantee_Name": null, "ObjectId": 7112 }, "geometry": { "type": "Point", "coordinates": [ -71.045235, 42.162956 ] } },
{ "type": "Feature", "properties": { "Record_ID": 292833, "Store_Name": "Roche Bros Supermarkets Inc 120", "Store_Street_Address": "184 Linden St", "Additonal_Address": null, "City": "Wellesley", "State": "MA", "Zip_Code": "02482", "Zip4": "7933", "County": "NORFOLK", "Store_Type": "Supermarket", "Latitude": 42.300148, "Longitude": -71.292084, "Incentive_Program": null, "Grantee_Name": null, "ObjectId": 7573 }, "geometry": { "type": "Point", "coordinates": [ -71.292084, 42.300148 ] } },
{ "type": "Feature", "properties": { "Record_ID": 311638, "Store_Name": "Stop & Shop 53", "Store_Street_Address": "713 E Broadway", "Additonal_Address": null, "City": "South Boston", "State": "MA", "Zip_Code": "02127", "Zip4": "1528", "County": "SUFFOLK", "Store_Type": "Supermarket", "Latitude": 42.335583, "Longitude": -71.036583, "Incentive_Program": null, "Grantee_Name": null, "ObjectId": 7979 }, "geometry": { "type": "Point", "coordinates": [ -71.036583, 42.335583 ] } },
{ "type": "Feature", "properties": { "Record_ID": 381321, "Store_Name": "Whole Foods Market 10015", "Store_Street_Address": "15 Washington St", "Additonal_Address": null, "City": "Brighton", "State": "MA", "Zip_Code": "02135", "Zip4": "7401", "County": "SUFFOLK", "Store_Type": "Super Store", "Latitude": 42.342525, "Longitude": -71.140648, "Incentive_Program": null, "Grantee_Name": null, "ObjectId": 8084 }, "geometry": { "type": "Point", "coordinates": [ -71.140648, 42.342525 ] } },
{ "type": "Feature", "properties": { "Record_ID": 379940, "Store_Name": "Stop & Shop 455", "Store_Street_Address": "695 Main St", "Additonal_Address": null, "City": "Winchester", "State": "MA", "Zip_Code": "01890", "Zip4": "1902", "County": "MIDDLESEX", "Store_Type": "Supermarket", "Latitude": 42.456764, "Longitude": -71.13826, "Incentive_Program": null, "Grantee_Name": null, "ObjectId": 8340 }, "geometry": { "type": "Point", "coordinates": [ -71.13826, 42.456764 ] } },
{ "type": "Feature", "properties": { "Record_ID": 273765, "Store_Name": "Donelan's of Wayland", "Store_Street_Address": "177 Commonwealth Rd", "Additonal_Address": null, "City": "Wayland", "State": "MA", "Zip_Code": "01778", "Zip4": "5003", "County": "MIDDLESEX", "Store_Type": "Super Store", "Latitude": 42.317032, "Longitude": -71.362358, "Incentive_Program": null, "Grantee_Name": null, "ObjectId": 8565 }, "geometry": { "type": "Point", "coordinates": [ -71.362358, 42.317032 ] } },
{ "type": "Feature", "properties": { "Record_ID": 331394, "Store_Name": "Trader Joe's 504", "Store_Street_Address": "958 Highland Ave", "Additonal_Address": null, "City": "Needham Heights", "State": "MA", "Zip_Code": "02494", "Zip4": "    ", "County": "NORFOLK", "Store_Type": "Supermarket", "Latitude": 42.292278, "Longitude": -71.235092, "Incentive_Program": null, "Grantee_Name": null, "ObjectId": 8754 }, "geometry": { "type": "Point", "coordinates": [ -71.235092, 42.292278 ] } },
{ "type": "Feature", "properties": { "Record_ID": 380437, "Store_Name": "Stop & Shop 4", "Store_Street_Address": "950 American Legion Hwy", "Additonal_Address": null, "City": "Roslindale", "State": "MA", "Zip_Code": "02131", "Zip4": "4701", "County": "SUFFOLK", "Store_Type": "Supermarket", "Latitude": 42.27372, "Longitude": -71.116951, "Incentive_Program": null, "Grantee_Name": null, "ObjectId": 8887 }, "geometry": { "type": "Point", "coordinates": [ -71.116951, 42.27372 ] } },
{ "type": "Feature", "properties": { "Record_ID": 380672, "Store_Name": "SHAW'S SUPERMARKET 3507", "Store_Street_Address": "34 Essex St", "Additonal_Address": null, "City": "Melrose", "State": "MA", "Zip_Code": "02176", "Zip4": "3102", "County": "MIDDLESEX", "Store_Type": "Supermarket", "Latitude": 42.45639, "Longitude": -71.065758, "Incentive_Program": null, "Grantee_Name": null, "ObjectId": 8997 }, "geometry": { "type": "Point", "coordinates": [ -71.065758, 42.45639 ] } },
{ "type": "Feature", "properties": { "Record_ID": 347685, "Store_Name": "MARKET BASKET 32", "Store_Street_Address": "170 Everett Ave", "Additonal_Address": null, "City": "Chelsea", "State": "MA", "Zip_Code": "02150", "Zip4": "1813", "County": "SUFFOLK", "Store_Type": "Super Store", "Latitude": 42.396633, "Longitude": -71.040024, "Incentive_Program": null, "Grantee_Name": null, "ObjectId": 9315 }, "geometry": { "type": "Point", "coordinates": [ -71.040024, 42.396633 ] } },
{ "type": "Feature", "properties": { "Record_ID": 297709, "Store_Name": "Trader Joe's 501", "Store_Street_Address": "1317 Beacon St", "Additonal_Address": null, "City": "Brookline", "State": "MA", "Zip_Code": "02446", "Zip4": "5242", "County": "NORFOLK", "Store_Type": "Supermarket", "Latitude": 42.342022, "Longitude": -71.121048, "Incentive_Program": null, "Grantee_Name": null, "ObjectId": 9472 }, "geometry": { "type": "Point", "coordinates": [ -71.121048, 42.342022 ] } },
{ "type": "Feature", "properties": { "Record_ID": 352554, "Store_Name": "SHAW'S SUPERMARKET 2571", "Store_Street_Address": "509 Boston Post Rd", "Additonal_Address": null, "City": "Sudbury", "State": "MA", "Zip_Code": "01776", "Zip4": "3313", "County": "MIDDLESEX", "Store_Type": "Supermarket", "Latitude": 42.360161, "Longitude": -71.430618, "Incentive_Program": null, "Grantee_Name": null, "ObjectId": 10207 }, "geometry": { "type": "Point", "coordinates": [ -71.430618, 42.360161 ] } },
{ "type": "Feature", "properties": { "Record_ID": 384771, "Store_Name": "Stop & Shop 407", "Store_Street_Address": "164 Main St", "Additonal_Address": null, "City": "Saugus", "State": "MA", "Zip_Code": "01906", "Zip4": "3271", "County": "ESSEX", "Store_Type": "Supermarket", "Latitude": 42.465866, "Longitude": -71.027061, "Incentive_Program": null, "Grantee_Name": null, "ObjectId": 10496 }, "geometry": { "type": "Point", "coordinates": [ -71.027061, 42.465866 ] } },
{ "type": "Feature", "properties": { "Record_ID": 385349, "Store_Name": "SHAW'S SUPERMARKET 2584", "Store_Street_Address": "155 Great Rd", "Additonal_Address": null, "City": "Stow", "State": "MA", "Zip_Code": "01775", "Zip4": "2150", "County": "MIDDLESEX", "Store_Type": "Supermarket", "Latitude": 42.433727, "Longitude": -71.487473, "Incentive_Program": null, "Grantee_Name": null, "ObjectId": 10759 }, "geometry": { "type": "Point", "coordinates": [ -71.487473, 42.433727 ] } },
{ "type": "Feature", "properties": { "Record_ID": 257725, "Store_Name": "Trader Joe's 515", "Store_Street_Address": "51 Middlesex Tpke", "Additonal_Address": null, "City": "Burlington", "State": "MA", "Zip_Code": "01803", "Zip4": "4911", "County": "MIDDLESEX", "Store_Type": "Supermarket", "Latitude": 42.473427, "Longitude": -71.212524, "Incentive_Program": null, "Grantee_Name": null, "ObjectId": 11047 }, "geometry": { "type": "Point", "coordinates": [ -71.212524, 42.473427 ] } },
{ "type": "Feature", "properties": { "Record_ID": 339719, "Store_Name": "Walmart  2341", "Store_Street_Address": "301 Falls Blvd", "Additonal_Address": null, "City": "Quincy", "State": "MA", "Zip_Code": "02169", "Zip4": "8160", "County": "NORFOLK", "Store_Type": "Super Store", "Latitude": 42.238022, "Longitude": -70.986511, "Incentive_Program": null, "Grantee_Name": null, "ObjectId": 11332 }, "geometry": { "type": "Point", "coordinates": [ -70.986511, 42.238022 ] } },
{ "type": "Feature", "properties": { "Record_ID": 339918, "Store_Name": "MCKINNON BROS INC", "Store_Street_Address": "620 Broadway", "Additonal_Address": null, "City": "Everett", "State": "MA", "Zip_Code": "02149", "Zip4": "3808", "County": "MIDDLESEX", "Store_Type": "Super Store", "Latitude": 42.412361, "Longitude": -71.050873, "Incentive_Program": null, "Grantee_Name": null, "ObjectId": 11519 }, "geometry": { "type": "Point", "coordinates": [ -71.050873, 42.412361 ] } },
{ "type": "Feature", "properties": { "Record_ID": 319365, "Store_Name": "Star Market 2583", "Store_Street_Address": "535 Trapelo Rd", "Additonal_Address": null, "City": "Belmont", "State": "MA", "Zip_Code": "02478", "Zip4": "1403", "County": "MIDDLESEX", "Store_Type": "Supermarket", "Latitude": 42.388615, "Longitude": -71.192299, "Incentive_Program": null, "Grantee_Name": null, "ObjectId": 12121 }, "geometry": { "type": "Point", "coordinates": [ -71.192299, 42.388615 ] } },
{ "type": "Feature", "properties": { "Record_ID": 338213, "Store_Name": "Whole Foods Market 10113", "Store_Street_Address": "340 River St", "Additonal_Address": null, "City": "Cambridge", "State": "MA", "Zip_Code": "02139", "Zip4": "4618", "County": "MIDDLESEX", "Store_Type": "Super Store", "Latitude": 42.361973, "Longitude": -71.114326, "Incentive_Program": null, "Grantee_Name": null, "ObjectId": 12558 }, "geometry": { "type": "Point", "coordinates": [ -71.114326, 42.361973 ] } },
{ "type": "Feature", "properties": { "Record_ID": 300633, "Store_Name": "Whole Foods Market 10013", "Store_Street_Address": "916 Walnut St", "Additonal_Address": null, "City": "Newton Highlands", "State": "MA", "Zip_Code": "02461", "Zip4": "1135", "County": "MIDDLESEX", "Store_Type": "Super Store", "Latitude": 42.32996, "Longitude": -71.206696, "Incentive_Program": null, "Grantee_Name": null, "ObjectId": 12826 }, "geometry": { "type": "Point", "coordinates": [ -71.206696, 42.32996 ] } },
{ "type": "Feature", "properties": { "Record_ID": 240913, "Store_Name": "ROXIE'S OF QUINCY INC", "Store_Street_Address": "479 Southern Artery", "Additonal_Address": null, "City": "Quincy", "State": "MA", "Zip_Code": "02169", "Zip4": "4621", "County": "NORFOLK", "Store_Type": "Super Store", "Latitude": 42.253845, "Longitude": -70.996384, "Incentive_Program": null, "Grantee_Name": null, "ObjectId": 12904 }, "geometry": { "type": "Point", "coordinates": [ -70.996384, 42.253845 ] } },
{ "type": "Feature", "properties": { "Record_ID": 336721, "Store_Name": "Whole Foods Market 10092", "Store_Street_Address": "647 Washington St", "Additonal_Address": null, "City": "Newton", "State": "MA", "Zip_Code": "02458", "Zip4": "1261", "County": "MIDDLESEX", "Store_Type": "Super Store", "Latitude": 42.353554, "Longitude": -71.20005, "Incentive_Program": null, "Grantee_Name": null, "ObjectId": 12967 }, "geometry": { "type": "Point", "coordinates": [ -71.20005, 42.353554 ] } },
{ "type": "Feature", "properties": { "Record_ID": 300929, "Store_Name": "SHAW'S SUPERMARKET 2579", "Store_Street_Address": "1377 Hyde Park Ave", "Additonal_Address": null, "City": "Hyde Park", "State": "MA", "Zip_Code": "02136", "Zip4": "2752", "County": "SUFFOLK", "Store_Type": "Supermarket", "Latitude": 42.251373, "Longitude": -71.125671, "Incentive_Program": null, "Grantee_Name": null, "ObjectId": 12989 }, "geometry": { "type": "Point", "coordinates": [ -71.125671, 42.251373 ] } },
{ "type": "Feature", "properties": { "Record_ID": 454365, "Store_Name": "Trader Joe's 505", "Store_Street_Address": "1427 Massachusetts Ave", "Additonal_Address": null, "City": "Arlington", "State": "MA", "Zip_Code": "02476", "Zip4": "4103", "County": "MIDDLESEX", "Store_Type": "Supermarket", "Latitude": 42.424915, "Longitude": -71.186966, "Incentive_Program": null, "Grantee_Name": null, "ObjectId": 13145 }, "geometry": { "type": "Point", "coordinates": [ -71.186966, 42.424915 ] } },
{ "type": "Feature", "properties": { "Record_ID": 324952, "Store_Name": "Stop & Shop 88", "Store_Street_Address": "337 Great Rd", "Additonal_Address": null, "City": "Bedford", "State": "MA", "Zip_Code": "01730", "Zip4": "2802", "County": "MIDDLESEX", "Store_Type": "Supermarket", "Latitude": 42.485748, "Longitude": -71.261147, "Incentive_Program": null, "Grantee_Name": null, "ObjectId": 13301 }, "geometry": { "type": "Point", "coordinates": [ -71.261147, 42.485748 ] } },
{ "type": "Feature", "properties": { "Record_ID": 455471, "Store_Name": "MARKET BASKET  46", "Store_Street_Address": "49 Pond St", "Additonal_Address": null, "City": "Ashland", "State": "MA", "Zip_Code": "01721", "Zip4": "2054", "County": "MIDDLESEX", "Store_Type": "Super Store", "Latitude": 42.256222, "Longitude": -71.426895, "Incentive_Program": null, "Grantee_Name": null, "ObjectId": 13971 }, "geometry": { "type": "Point", "coordinates": [ -71.426895, 42.256222 ] } },
{ "type": "Feature", "properties": { "Record_ID": 457221, "Store_Name": "Waltham India Market", "Store_Street_Address": "315 Moody St", "Additonal_Address": null, "City": "Waltham", "State": "MA", "Zip_Code": "02453", "Zip4": "5206", "County": "MIDDLESEX", "Store_Type": "Super Store", "Latitude": 42.370712, "Longitude": -71.237038, "Incentive_Program": null, "Grantee_Name": null, "ObjectId": 14664 }, "geometry": { "type": "Point", "coordinates": [ -71.237038, 42.370712 ] } },
{ "type": "Feature", "properties": { "Record_ID": 320701, "Store_Name": "Star Market 163", "Store_Street_Address": "49 White St", "Additonal_Address": null, "City": "Cambridge", "State": "MA", "Zip_Code": "02140", "Zip4": "1413", "County": "MIDDLESEX", "Store_Type": "Supermarket", "Latitude": 42.38929, "Longitude": -71.117775, "Incentive_Program": null, "Grantee_Name": null, "ObjectId": 14697 }, "geometry": { "type": "Point", "coordinates": [ -71.117775, 42.38929 ] } },
{ "type": "Feature", "properties": { "Record_ID": 360379, "Store_Name": "Stop & Shop 3", "Store_Street_Address": "235 Old Connecticut Path", "Additonal_Address": "Ste 003", "City": "Framingham", "State": "MA", "Zip_Code": "01701", "Zip4": "4575", "County": "MIDDLESEX", "Store_Type": "Supermarket", "Latitude": 42.306458, "Longitude": -71.402451, "Incentive_Program": null, "Grantee_Name": null, "ObjectId": 15067 }, "geometry": { "type": "Point", "coordinates": [ -71.402451, 42.306458 ] } },
{ "type": "Feature", "properties": { "Record_ID": 439836, "Store_Name": "Stop & Shop 446", "Store_Street_Address": "171 Watertown St", "Additonal_Address": null, "City": "Watertown", "State": "MA", "Zip_Code": "02472", "Zip4": "2571", "County": "MIDDLESEX", "Store_Type": "Supermarket", "Latitude": 42.362385, "Longitude": -71.192848, "Incentive_Program": null, "Grantee_Name": null, "ObjectId": 15824 }, "geometry": { "type": "Point", "coordinates": [ -71.192848, 42.362385 ] } },
{ "type": "Feature", "properties": { "Record_ID": 440677, "Store_Name": "Stop & Shop 2424", "Store_Street_Address": "252 Main St", "Additonal_Address": null, "City": "Acton", "State": "MA", "Zip_Code": "01720", "Zip4": "3638", "County": "MIDDLESEX", "Store_Type": "Supermarket", "Latitude": 42.474037, "Longitude": -71.456177, "Incentive_Program": null, "Grantee_Name": null, "ObjectId": 15838 }, "geometry": { "type": "Point", "coordinates": [ -71.456177, 42.474037 ] } },
{ "type": "Feature", "properties": { "Record_ID": 416597, "Store_Name": "Roche Bros Supermarkets Inc 104", "Store_Street_Address": "338 Washington St", "Additonal_Address": null, "City": "Westwood", "State": "MA", "Zip_Code": "02090", "Zip4": "1829", "County": "NORFOLK", "Store_Type": "Supermarket", "Latitude": 42.217327, "Longitude": -71.188667, "Incentive_Program": null, "Grantee_Name": null, "ObjectId": 16012 }, "geometry": { "type": "Point", "coordinates": [ -71.188667, 42.217327 ] } },
{ "type": "Feature", "properties": { "Record_ID": 415301, "Store_Name": "Whole Foods Market 10090", "Store_Street_Address": "170 Great Rd", "Additonal_Address": null, "City": "Bedford", "State": "MA", "Zip_Code": "01730", "Zip4": "2731", "County": "MIDDLESEX", "Store_Type": "Super Store", "Latitude": 42.489952, "Longitude": -71.274178, "Incentive_Program": null, "Grantee_Name": null, "ObjectId": 16201 }, "geometry": { "type": "Point", "coordinates": [ -71.274178, 42.489952 ] } },
{ "type": "Feature", "properties": { "Record_ID": 376085, "Store_Name": "Roche Bros Supermarkets Inc 106", "Store_Street_Address": "6 Milliston Rd", "Additonal_Address": null, "City": "Millis", "State": "MA", "Zip_Code": "02054", "Zip4": "1600", "County": "NORFOLK", "Store_Type": "Supermarket", "Latitude": 42.168514, "Longitude": -71.354164, "Incentive_Program": null, "Grantee_Name": null, "ObjectId": 16871 }, "geometry": { "type": "Point", "coordinates": [ -71.354164, 42.168514 ] } },
{ "type": "Feature", "properties": { "Record_ID": 502666, "Store_Name": "Stop & Shop 491", "Store_Street_Address": "36 Bedford St", "Additonal_Address": null, "City": "Lexington", "State": "MA", "Zip_Code": "02420", "Zip4": "4308", "County": "MIDDLESEX", "Store_Type": "Supermarket", "Latitude": 42.452339, "Longitude": -71.232117, "Incentive_Program": null, "Grantee_Name": null, "ObjectId": 17050 }, "geometry": { "type": "Point", "coordinates": [ -71.232117, 42.452339 ] } },
{ "type": "Feature", "properties": { "Record_ID": 328900, "Store_Name": "TROPICAL FOODS INTERNATIONAL INC", "Store_Street_Address": "450 Melnea Cass Blvd", "Additonal_Address": null, "City": "Roxbury", "State": "MA", "Zip_Code": "02119", "Zip4": "2091", "County": "SUFFOLK", "Store_Type": "Super Store", "Latitude": 42.333248, "Longitude": -71.081856, "Incentive_Program": null, "Grantee_Name": null, "ObjectId": 17313 }, "geometry": { "type": "Point", "coordinates": [ -71.081856, 42.333248 ] } },
{ "type": "Feature", "properties": { "Record_ID": 505442, "Store_Name": "Stop & Shop 75", "Store_Street_Address": "301 Centre St", "Additonal_Address": null, "City": "Jamaica Plain", "State": "MA", "Zip_Code": "02130", "Zip4": "1649", "County": "SUFFOLK", "Store_Type": "Supermarket", "Latitude": 42.322918, "Longitude": -71.103706, "Incentive_Program": null, "Grantee_Name": null, "ObjectId": 18194 }, "geometry": { "type": "Point", "coordinates": [ -71.103706, 42.322918 ] } },
{ "type": "Feature", "properties": { "Record_ID": 541252, "Store_Name": "Roche Bros Supermarkets Inc 112", "Store_Street_Address": "387 Massachusetts Ave", "Additonal_Address": null, "City": "Acton", "State": "MA", "Zip_Code": "01720", "Zip4": "3733", "County": "MIDDLESEX", "Store_Type": "Supermarket", "Latitude": 42.474499, "Longitude": -71.44986, "Incentive_Program": null, "Grantee_Name": null, "ObjectId": 19400 }, "geometry": { "type": "Point", "coordinates": [ -71.44986, 42.474499 ] } },
{ "type": "Feature", "properties": { "Record_ID": 542332, "Store_Name": "SHAW'S SUPERMARKET 428", "Store_Street_Address": "95A Washington St", "Additonal_Address": "Cobbs Corner", "City": "Canton", "State": "MA", "Zip_Code": "02021", "Zip4": "4001", "County": "NORFOLK", "Store_Type": "Supermarket", "Latitude": 42.140862, "Longitude": -71.148575, "Incentive_Program": null, "Grantee_Name": null, "ObjectId": 19641 }, "geometry": { "type": "Point", "coordinates": [ -71.148575, 42.140862 ] } },
{ "type": "Feature", "properties": { "Record_ID": 429710, "Store_Name": "Whole Foods Market 10031", "Store_Street_Address": "15 Westland Ave", "Additonal_Address": null, "City": "Boston", "State": "MA", "Zip_Code": "02115", "Zip4": "4558", "County": "SUFFOLK", "Store_Type": "Super Store", "Latitude": 42.343487, "Longitude": -71.086678, "Incentive_Program": null, "Grantee_Name": null, "ObjectId": 20109 }, "geometry": { "type": "Point", "coordinates": [ -71.086678, 42.343487 ] } },
{ "type": "Feature", "properties": { "Record_ID": 388244, "Store_Name": "Village Market", "Store_Street_Address": "71 Front St", "Additonal_Address": null, "City": "Scituate", "State": "MA", "Zip_Code": "02066", "Zip4": "1344", "County": "PLYMOUTH", "Store_Type": "Super Store", "Latitude": 42.193893, "Longitude": -70.725426, "Incentive_Program": null, "Grantee_Name": null, "ObjectId": 20563 }, "geometry": { "type": "Point", "coordinates": [ -70.725426, 42.193893 ] } },
{ "type": "Feature", "properties": { "Record_ID": 629656, "Store_Name": "Trader Joe's 511", "Store_Street_Address": "145 Great Rd", "Additonal_Address": null, "City": "Acton", "State": "MA", "Zip_Code": "01720", "Zip4": "5683", "County": "MIDDLESEX", "Store_Type": "Supermarket", "Latitude": 42.482372, "Longitude": -71.415459, "Incentive_Program": null, "Grantee_Name": null, "ObjectId": 21679 }, "geometry": { "type": "Point", "coordinates": [ -71.415459, 42.482372 ] } },
{ "type": "Feature", "properties": { "Record_ID": 627906, "Store_Name": "Whole Foods Market 10156", "Store_Street_Address": "575 Worcester Rd", "Additonal_Address": null, "City": "Framingham", "State": "MA", "Zip_Code": "01701", "Zip4": "5312", "County": "MIDDLESEX", "Store_Type": "Super Store", "Latitude": 42.298145, "Longitude": -71.421715, "Incentive_Program": null, "Grantee_Name": null, "ObjectId": 21946 }, "geometry": { "type": "Point", "coordinates": [ -71.421715, 42.298145 ] } },
{ "type": "Feature", "properties": { "Record_ID": 393186, "Store_Name": "SHAW'S SUPERMARKET 3413", "Store_Street_Address": "610 Middle St", "Additonal_Address": null, "City": "East Weymouth", "State": "MA", "Zip_Code": "02189", "Zip4": "1130", "County": "NORFOLK", "Store_Type": "Supermarket", "Latitude": 42.203835, "Longitude": -70.94384, "Incentive_Program": null, "Grantee_Name": null, "ObjectId": 23024 }, "geometry": { "type": "Point", "coordinates": [ -70.94384, 42.203835 ] } },
{ "type": "Feature", "properties": { "Record_ID": 364297, "Store_Name": "Trader Joe's 509", "Store_Street_Address": "1121 Washington St", "Additonal_Address": null, "City": "West Newton", "State": "MA", "Zip_Code": "02465", "Zip4": "2149", "County": "MIDDLESEX", "Store_Type": "Supermarket", "Latitude": 42.349575, "Longitude": -71.219322, "Incentive_Program": null, "Grantee_Name": null, "ObjectId": 23573 }, "geometry": { "type": "Point", "coordinates": [ -71.219322, 42.349575 ] } },
{ "type": "Feature", "properties": { "Record_ID": 521286, "Store_Name": "BUTCHERIE", "Store_Street_Address": "428 Harvard St", "Additonal_Address": null, "City": "Brookline", "State": "MA", "Zip_Code": "02446", "Zip4": "2430", "County": "NORFOLK", "Store_Type": "Super Store", "Latitude": 42.345669, "Longitude": -71.127579, "Incentive_Program": null, "Grantee_Name": null, "ObjectId": 24112 }, "geometry": { "type": "Point", "coordinates": [ -71.127579, 42.345669 ] } },
{ "type": "Feature", "properties": { "Record_ID": 597648, "Store_Name": "LAMBERT'S RAINBOW FRUIT", "Store_Street_Address": "220 Providence Hwy", "Additonal_Address": null, "City": "Westwood", "State": "MA", "Zip_Code": "02090", "Zip4": "1908", "County": "NORFOLK", "Store_Type": "Super Store", "Latitude": 42.217762, "Longitude": -71.180702, "Incentive_Program": null, "Grantee_Name": null, "ObjectId": 24686 }, "geometry": { "type": "Point", "coordinates": [ -71.180702, 42.217762 ] } },
{ "type": "Feature", "properties": { "Record_ID": 368450, "Store_Name": "SHAW'S SUPERMARKET 1497", "Store_Street_Address": "130 River St", "Additonal_Address": null, "City": "Waltham", "State": "MA", "Zip_Code": "02453", "Zip4": "8306", "County": "MIDDLESEX", "Store_Type": "Supermarket", "Latitude": 42.370014, "Longitude": -71.221474, "Incentive_Program": null, "Grantee_Name": null, "ObjectId": 25229 }, "geometry": { "type": "Point", "coordinates": [ -71.221474, 42.370014 ] } },
{ "type": "Feature", "properties": { "Record_ID": 369578, "Store_Name": "Stop & Shop 006", "Store_Street_Address": "829 Worcester St", "Additonal_Address": "Ste 1", "City": "Natick", "State": "MA", "Zip_Code": "01760", "Zip4": "2076", "County": "MIDDLESEX", "Store_Type": "Supermarket", "Latitude": 42.30043, "Longitude": -71.356766, "Incentive_Program": null, "Grantee_Name": null, "ObjectId": 25336 }, "geometry": { "type": "Point", "coordinates": [ -71.356766, 42.30043 ] } },
{ "type": "Feature", "properties": { "Record_ID": 599008, "Store_Name": "Whole Foods Market 10010", "Store_Street_Address": "115 Prospect St", "Additonal_Address": null, "City": "Cambridge", "State": "MA", "Zip_Code": "02139", "Zip4": "2505", "County": "MIDDLESEX", "Store_Type": "Super Store", "Latitude": 42.368008, "Longitude": -71.101982, "Incentive_Program": null, "Grantee_Name": null, "ObjectId": 26138 }, "geometry": { "type": "Point", "coordinates": [ -71.101982, 42.368008 ] } },
{ "type": "Feature", "properties": { "Record_ID": 683976, "Store_Name": "Star Market 3577", "Store_Street_Address": "75 Spring St", "Additonal_Address": null, "City": "West Roxbury", "State": "MA", "Zip_Code": "02132", "Zip4": "4335", "County": "SUFFOLK", "Store_Type": "Supermarket", "Latitude": 42.277458, "Longitude": -71.16333, "Incentive_Program": null, "Grantee_Name": null, "ObjectId": 26324 }, "geometry": { "type": "Point", "coordinates": [ -71.16333, 42.277458 ] } },
{ "type": "Feature", "properties": { "Record_ID": 600950, "Store_Name": "Star Market 2575", "Store_Street_Address": "275 Beacon St", "Additonal_Address": null, "City": "Somerville", "State": "MA", "Zip_Code": "02143", "Zip4": "3533", "County": "MIDDLESEX", "Store_Type": "Supermarket", "Latitude": 42.383022, "Longitude": -71.112152, "Incentive_Program": null, "Grantee_Name": null, "ObjectId": 26877 }, "geometry": { "type": "Point", "coordinates": [ -71.112152, 42.383022 ] } },
{ "type": "Feature", "properties": { "Record_ID": 420427, "Store_Name": "Star Market 602", "Store_Street_Address": "53 Huntington Ave", "Additonal_Address": "Prudential New", "City": "Boston", "State": "MA", "Zip_Code": "02199", "Zip4": "7602", "County": "SUFFOLK", "Store_Type": "Supermarket", "Latitude": 42.347034, "Longitude": -71.079796, "Incentive_Program": null, "Grantee_Name": null, "ObjectId": 27130 }, "geometry": { "type": "Point", "coordinates": [ -71.079796, 42.347034 ] } },
{ "type": "Feature", "properties": { "Record_ID": 422497, "Store_Name": "Stop & Shop 28", "Store_Street_Address": "468 Washington St", "Additonal_Address": null, "City": "Norwell", "State": "MA", "Zip_Code": "02061", "Zip4": "2006", "County": "PLYMOUTH", "Store_Type": "Supermarket", "Latitude": 42.159313, "Longitude": -70.853493, "Incentive_Program": null, "Grantee_Name": null, "ObjectId": 27496 }, "geometry": { "type": "Point", "coordinates": [ -70.853493, 42.159313 ] } },
{ "type": "Feature", "properties": { "Record_ID": 511194, "Store_Name": "Stop & Shop 67", "Store_Street_Address": "35 Washington St", "Additonal_Address": null, "City": "Lynn", "State": "MA", "Zip_Code": "01904", "Zip4": "3305", "County": "ESSEX", "Store_Type": "Supermarket", "Latitude": 42.470394, "Longitude": -70.957916, "Incentive_Program": null, "Grantee_Name": null, "ObjectId": 28193 }, "geometry": { "type": "Point", "coordinates": [ -70.957916, 42.470394 ] } },
{ "type": "Feature", "properties": { "Record_ID": 509938, "Store_Name": "SHAW'S SUPERMARKET 1419", "Store_Street_Address": "301 Pond St", "Additonal_Address": null, "City": "Ashland", "State": "MA", "Zip_Code": "01721", "Zip4": "2327", "County": "MIDDLESEX", "Store_Type": "Supermarket", "Latitude": 42.241459, "Longitude": -71.43158, "Incentive_Program": null, "Grantee_Name": null, "ObjectId": 28583 }, "geometry": { "type": "Point", "coordinates": [ -71.43158, 42.241459 ] } },
{ "type": "Feature", "properties": { "Record_ID": 513475, "Store_Name": "Star Market 3580", "Store_Street_Address": "14 McGrath Hwy", "Additonal_Address": "Ste 3", "City": "Somerville", "State": "MA", "Zip_Code": "02143", "Zip4": "4503", "County": "MIDDLESEX", "Store_Type": "Supermarket", "Latitude": 42.375244, "Longitude": -71.08548, "Incentive_Program": null, "Grantee_Name": null, "ObjectId": 28900 }, "geometry": { "type": "Point", "coordinates": [ -71.08548, 42.375244 ] } },
{ "type": "Feature", "properties": { "Record_ID": 487541, "Store_Name": "SHAW'S SUPERMARKET 440", "Store_Street_Address": "35 Columbia Rd", "Additonal_Address": null, "City": "Hanover", "State": "MA", "Zip_Code": "02339", "Zip4": "2317", "County": "PLYMOUTH", "Store_Type": "Supermarket", "Latitude": 42.11647, "Longitude": -70.821671, "Incentive_Program": null, "Grantee_Name": null, "ObjectId": 28989 }, "geometry": { "type": "Point", "coordinates": [ -70.821671, 42.11647 ] } },
{ "type": "Feature", "properties": { "Record_ID": 690943, "Store_Name": "Stop & Shop 1", "Store_Street_Address": "155 Harvard St", "Additonal_Address": null, "City": "Brookline", "State": "MA", "Zip_Code": "02446", "Zip4": "6433", "County": "NORFOLK", "Store_Type": "Supermarket", "Latitude": 42.33847, "Longitude": -71.121315, "Incentive_Program": null, "Grantee_Name": null, "ObjectId": 29635 }, "geometry": { "type": "Point", "coordinates": [ -71.121315, 42.33847 ] } },
{ "type": "Feature", "properties": { "Record_ID": 494448, "Store_Name": "FRUIT CENTER INC", "Store_Street_Address": "79 Water St", "Additonal_Address": null, "City": "Hingham", "State": "MA", "Zip_Code": "02043", "Zip4": "2260", "County": "PLYMOUTH", "Store_Type": "Super Store", "Latitude": 42.244591, "Longitude": -70.883553, "Incentive_Program": null, "Grantee_Name": null, "ObjectId": 30046 }, "geometry": { "type": "Point", "coordinates": [ -70.883553, 42.244591 ] } },
{ "type": "Feature", "properties": { "Record_ID": 463644, "Store_Name": "Star Market 426", "Store_Street_Address": "795 Providence Hwy", "Additonal_Address": null, "City": "Dedham", "State": "MA", "Zip_Code": "02026", "Zip4": "6802", "County": "NORFOLK", "Store_Type": "Supermarket", "Latitude": 42.237438, "Longitude": -71.178535, "Incentive_Program": null, "Grantee_Name": null, "ObjectId": 30244 }, "geometry": { "type": "Point", "coordinates": [ -71.178535, 42.237438 ] } },
{ "type": "Feature", "properties": { "Record_ID": 463658, "Store_Name": "MARKET BASKET  28", "Store_Street_Address": "400 Somerville Ave", "Additonal_Address": null, "City": "Somerville", "State": "MA", "Zip_Code": "02143", "Zip4": "3215", "County": "MIDDLESEX", "Store_Type": "Super Store", "Latitude": 42.381702, "Longitude": -71.101295, "Incentive_Program": null, "Grantee_Name": null, "ObjectId": 30249 }, "geometry": { "type": "Point", "coordinates": [ -71.101295, 42.381702 ] } },
{ "type": "Feature", "properties": { "Record_ID": 461891, "Store_Name": "Star Market 4587", "Store_Street_Address": "45 William T Morrissey Blvd", "Additonal_Address": null, "City": "Dorchester", "State": "MA", "Zip_Code": "02125", "Zip4": "3326", "County": "SUFFOLK", "Store_Type": "Supermarket", "Latitude": 42.31897, "Longitude": -71.050171, "Incentive_Program": null, "Grantee_Name": null, "ObjectId": 30303 }, "geometry": { "type": "Point", "coordinates": [ -71.050171, 42.31897 ] } },
{ "type": "Feature", "properties": { "Record_ID": 462692, "Store_Name": "Price Rite", "Store_Street_Address": "650 American Legion Hwy", "Additonal_Address": null, "City": "Roslindale", "State": "MA", "Zip_Code": "02131", "Zip4": "3901", "County": "SUFFOLK", "Store_Type": "Super Store", "Latitude": 42.284618, "Longitude": -71.111542, "Incentive_Program": null, "Grantee_Name": null, "ObjectId": 30385 }, "geometry": { "type": "Point", "coordinates": [ -71.111542, 42.284618 ] } },
{ "type": "Feature", "properties": { "Record_ID": 491762, "Store_Name": "Whole Foods Market 10380", "Store_Street_Address": "2151 Mystic Valley Pkwy", "Additonal_Address": null, "City": "Medford", "State": "MA", "Zip_Code": "02155", "Zip4": "3757", "County": "MIDDLESEX", "Store_Type": "Super Store", "Latitude": 42.417717, "Longitude": -71.127312, "Incentive_Program": null, "Grantee_Name": null, "ObjectId": 30493 }, "geometry": { "type": "Point", "coordinates": [ -71.127312, 42.417717 ] } },
{ "type": "Feature", "properties": { "Record_ID": 461562, "Store_Name": "Shaw's Supermarket 1430", "Store_Street_Address": "65 Main St", "Additonal_Address": null, "City": "Medway", "State": "MA", "Zip_Code": "02053", "Zip4": "1817", "County": "NORFOLK", "Store_Type": "Supermarket", "Latitude": 42.153183, "Longitude": -71.404404, "Incentive_Program": null, "Grantee_Name": null, "ObjectId": 30763 }, "geometry": { "type": "Point", "coordinates": [ -71.404404, 42.153183 ] } },
{ "type": "Feature", "properties": { "Record_ID": 569238, "Store_Name": "Village Market", "Store_Street_Address": "30 Corinth St", "Additonal_Address": null, "City": "Roslindale", "State": "MA", "Zip_Code": "02131", "Zip4": "3029", "County": "SUFFOLK", "Store_Type": "Supermarket", "Latitude": 42.286144, "Longitude": -71.129646, "Incentive_Program": null, "Grantee_Name": null, "ObjectId": 31013 }, "geometry": { "type": "Point", "coordinates": [ -71.129646, 42.286144 ] } },
{ "type": "Feature", "properties": { "Record_ID": 568541, "Store_Name": "TRUONG THINH II MARKET", "Store_Street_Address": "1305 Dorchester Ave", "Additonal_Address": null, "City": "Dorchester", "State": "MA", "Zip_Code": "02122", "Zip4": "2909", "County": "SUFFOLK", "Store_Type": "Super Store", "Latitude": 42.306072, "Longitude": -71.058838, "Incentive_Program": null, "Grantee_Name": null, "ObjectId": 31738 }, "geometry": { "type": "Point", "coordinates": [ -71.058838, 42.306072 ] } },
{ "type": "Feature", "properties": { "Record_ID": 514202, "Store_Name": "Walmart  3200", "Store_Street_Address": "740 Middle St", "Additonal_Address": null, "City": "Weymouth", "State": "MA", "Zip_Code": "02188", "Zip4": "4006", "County": "NORFOLK", "Store_Type": "Super Store", "Latitude": 42.199429, "Longitude": -70.946114, "Incentive_Program": null, "Grantee_Name": null, "ObjectId": 32071 }, "geometry": { "type": "Point", "coordinates": [ -70.946114, 42.199429 ] } },
{ "type": "Feature", "properties": { "Record_ID": 555412, "Store_Name": "Stop & Shop 2489", "Store_Street_Address": "305 Guest Street", "Additonal_Address": null, "City": "Allston", "State": "MA", "Zip_Code": "02134", "Zip4": "1951", "County": "SUFFOLK", "Store_Type": "Supermarket", "Latitude": 42.356953, "Longitude": -71.144936, "Incentive_Program": null, "Grantee_Name": null, "ObjectId": 32340 }, "geometry": { "type": "Point", "coordinates": [ -71.144936, 42.356953 ] } },
{ "type": "Feature", "properties": { "Record_ID": 467937, "Store_Name": "Happy Supermarket", "Store_Street_Address": "868 Blue Hill Ave", "Additonal_Address": null, "City": "Dorchester Center", "State": "MA", "Zip_Code": "02124", "Zip4": "1607", "County": "SUFFOLK", "Store_Type": "Supermarket", "Latitude": 42.294964, "Longitude": -71.087746, "Incentive_Program": null, "Grantee_Name": null, "ObjectId": 32616 }, "geometry": { "type": "Point", "coordinates": [ -71.087746, 42.294964 ] } },
{ "type": "Feature", "properties": { "Record_ID": 488337, "Store_Name": "Stop & Shop 412", "Store_Street_Address": "1620 Tremont St", "Additonal_Address": null, "City": "Boston", "State": "MA", "Zip_Code": "02120", "Zip4": "1613", "County": "SUFFOLK", "Store_Type": "Supermarket", "Latitude": 42.333763, "Longitude": -71.103699, "Incentive_Program": null, "Grantee_Name": null, "ObjectId": 33032 }, "geometry": { "type": "Point", "coordinates": [ -71.103699, 42.333763 ] } },
{ "type": "Feature", "properties": { "Record_ID": 472415, "Store_Name": "SHAW'S SUPERMARKET 3567", "Store_Street_Address": "134 Nahatan St", "Additonal_Address": null, "City": "Norwood", "State": "MA", "Zip_Code": "02062", "Zip4": "4252", "County": "NORFOLK", "Store_Type": "Supermarket", "Latitude": 42.19212, "Longitude": -71.195244, "Incentive_Program": null, "Grantee_Name": null, "ObjectId": 33308 }, "geometry": { "type": "Point", "coordinates": [ -71.195244, 42.19212 ] } },
{ "type": "Feature", "properties": { "Record_ID": 572303, "Store_Name": "Needham Sudbury Farms 209", "Store_Street_Address": "1177 Highland Ave", "Additonal_Address": null, "City": "Needham Heights", "State": "MA", "Zip_Code": "02494", "Zip4": "3270", "County": "NORFOLK", "Store_Type": "Supermarket", "Latitude": 42.286629, "Longitude": -71.235199, "Incentive_Program": null, "Grantee_Name": null, "ObjectId": 33418 }, "geometry": { "type": "Point", "coordinates": [ -71.235199, 42.286629 ] } },
{ "type": "Feature", "properties": { "Record_ID": 570863, "Store_Name": "Roche Bros Supermarkets Inc 102", "Store_Street_Address": "377 Chestnut St", "Additonal_Address": null, "City": "Needham", "State": "MA", "Zip_Code": "02492", "Zip4": "2485", "County": "NORFOLK", "Store_Type": "Supermarket", "Latitude": 42.273685, "Longitude": -71.237991, "Incentive_Program": null, "Grantee_Name": null, "ObjectId": 33871 }, "geometry": { "type": "Point", "coordinates": [ -71.237991, 42.273685 ] } },
{ "type": "Feature", "properties": { "Record_ID": 498618, "Store_Name": "Trader Joe's 513", "Store_Street_Address": "1775 Washington St", "Additonal_Address": "Building #12/Space 1220", "City": "Hanover", "State": "MA", "Zip_Code": "02339", "Zip4": "1701", "County": "PLYMOUTH", "Store_Type": "Supermarket", "Latitude": 42.143208, "Longitude": -70.841034, "Incentive_Program": null, "Grantee_Name": null, "ObjectId": 34289 }, "geometry": { "type": "Point", "coordinates": [ -70.841034, 42.143208 ] } },
{ "type": "Feature", "properties": { "Record_ID": 546853, "Store_Name": "Stop & Shop 44", "Store_Street_Address": "565 Main St", "Additonal_Address": null, "City": "Walpole", "State": "MA", "Zip_Code": "02081", "Zip4": "3726", "County": "NORFOLK", "Store_Type": "Supermarket", "Latitude": 42.157356, "Longitude": -71.243408, "Incentive_Program": null, "Grantee_Name": null, "ObjectId": 34550 }, "geometry": { "type": "Point", "coordinates": [ -71.243408, 42.157356 ] } },
{ "type": "Feature", "properties": { "Record_ID": 533760, "Store_Name": "Roche Bros Supermarkets Inc 115", "Store_Street_Address": "1800 Centre St", "Additonal_Address": null, "City": "West Roxbury", "State": "MA", "Zip_Code": "02132", "Zip4": "1901", "County": "SUFFOLK", "Store_Type": "Supermarket", "Latitude": 42.287281, "Longitude": -71.152893, "Incentive_Program": null, "Grantee_Name": null, "ObjectId": 35581 }, "geometry": { "type": "Point", "coordinates": [ -71.152893, 42.287281 ] } },
{ "type": "Feature", "properties": { "Record_ID": 700197, "Store_Name": "Whole Foods Market 10159", "Store_Street_Address": "94 Derby St", "Additonal_Address": null, "City": "Hingham", "State": "MA", "Zip_Code": "02043", "Zip4": "4220", "County": "PLYMOUTH", "Store_Type": "Super Store", "Latitude": 42.180302, "Longitude": -70.906563, "Incentive_Program": null, "Grantee_Name": null, "ObjectId": 36173 }, "geometry": { "type": "Point", "coordinates": [ -70.906563, 42.180302 ] } },
{ "type": "Feature", "properties": { "Record_ID": 560168, "Store_Name": "Trader Joe's 502", "Store_Street_Address": "748 Memorial Dr", "Additonal_Address": null, "City": "Cambridge", "State": "MA", "Zip_Code": "02139", "Zip4": "4614", "County": "MIDDLESEX", "Store_Type": "Supermarket", "Latitude": 42.357712, "Longitude": -71.115257, "Incentive_Program": null, "Grantee_Name": null, "ObjectId": 36402 }, "geometry": { "type": "Point", "coordinates": [ -71.115257, 42.357712 ] } },
{ "type": "Feature", "properties": { "Record_ID": 609774, "Store_Name": "Star Market 2576", "Store_Street_Address": "33 Kilmarnock St", "Additonal_Address": null, "City": "Boston", "State": "MA", "Zip_Code": "02215", "Zip4": "4308", "County": "SUFFOLK", "Store_Type": "Supermarket", "Latitude": 42.343582, "Longitude": -71.099884, "Incentive_Program": null, "Grantee_Name": null, "ObjectId": 36470 }, "geometry": { "type": "Point", "coordinates": [ -71.099884, 42.343582 ] } },
{ "type": "Feature", "properties": { "Record_ID": 610096, "Store_Name": "Big Y World Class Market 65", "Store_Street_Address": "1111 Providence Hwy", "Additonal_Address": null, "City": "Walpole", "State": "MA", "Zip_Code": "02081", "Zip4": "4232", "County": "NORFOLK", "Store_Type": "Super Store", "Latitude": 42.138805, "Longitude": -71.219826, "Incentive_Program": null, "Grantee_Name": null, "ObjectId": 36503 }, "geometry": { "type": "Point", "coordinates": [ -71.219826, 42.138805 ] } },
{ "type": "Feature", "properties": { "Record_ID": 527419, "Store_Name": "WINTHROP MARKETPLACE INC.", "Store_Street_Address": "35 Revere St", "Additonal_Address": null, "City": "Winthrop", "State": "MA", "Zip_Code": "02152", "Zip4": "1624", "County": "SUFFOLK", "Store_Type": "Supermarket", "Latitude": 42.381924, "Longitude": -70.981033, "Incentive_Program": null, "Grantee_Name": null, "ObjectId": 37855 }, "geometry": { "type": "Point", "coordinates": [ -70.981033, 42.381924 ] } },
{ "type": "Feature", "properties": { "Record_ID": 548605, "Store_Name": "Star Market 3588", "Store_Street_Address": "1065 Commonwealth Ave", "Additonal_Address": null, "City": "Boston", "State": "MA", "Zip_Code": "02215", "Zip4": "    ", "County": "SUFFOLK", "Store_Type": "Supermarket", "Latitude": 42.352177, "Longitude": -71.123421, "Incentive_Program": null, "Grantee_Name": null, "ObjectId": 38958 }, "geometry": { "type": "Point", "coordinates": [ -71.123421, 42.352177 ] } },
{ "type": "Feature", "properties": { "Record_ID": 704454, "Store_Name": "Stop & Shop 35", "Store_Street_Address": "400 Lincoln St", "Additonal_Address": "Ste 1", "City": "Hingham", "State": "MA", "Zip_Code": "02043", "Zip4": "1505", "County": "PLYMOUTH", "Store_Type": "Supermarket", "Latitude": 42.248432, "Longitude": -70.924461, "Incentive_Program": null, "Grantee_Name": null, "ObjectId": 41015 }, "geometry": { "type": "Point", "coordinates": [ -70.924461, 42.248432 ] } },
{ "type": "Feature", "properties": { "Record_ID": 615003, "Store_Name": "Star Market 2569", "Store_Street_Address": "1070 Lexington St", "Additonal_Address": null, "City": "Waltham", "State": "MA", "Zip_Code": "02452", "Zip4": "7206", "County": "MIDDLESEX", "Store_Type": "Supermarket", "Latitude": 42.411304, "Longitude": -71.233727, "Incentive_Program": null, "Grantee_Name": null, "ObjectId": 41341 }, "geometry": { "type": "Point", "coordinates": [ -71.233727, 42.411304 ] } },
{ "type": "Feature", "properties": { "Record_ID": 703021, "Store_Name": "Star Market 4568", "Store_Street_Address": "2040 Commonwealth Ave", "Additonal_Address": null, "City": "Auburndale", "State": "MA", "Zip_Code": "02466", "Zip4": "2002", "County": "MIDDLESEX", "Store_Type": "Supermarket", "Latitude": 42.347477, "Longitude": -71.245567, "Incentive_Program": null, "Grantee_Name": null, "ObjectId": 41855 }, "geometry": { "type": "Point", "coordinates": [ -71.245567, 42.347477 ] } },
{ "type": "Feature", "properties": { "Record_ID": 704135, "Store_Name": "Star Market 3561", "Store_Street_Address": "33 Austin St", "Additonal_Address": null, "City": "Newtonville", "State": "MA", "Zip_Code": "02460", "Zip4": "1842", "County": "MIDDLESEX", "Store_Type": "Supermarket", "Latitude": 42.350517, "Longitude": -71.208443, "Incentive_Program": null, "Grantee_Name": null, "ObjectId": 41861 }, "geometry": { "type": "Point", "coordinates": [ -71.208443, 42.350517 ] } },
{ "type": "Feature", "properties": { "Record_ID": 703196, "Store_Name": "Market Basket 24", "Store_Street_Address": "43 Middlesex Tpke", "Additonal_Address": null, "City": "Burlington", "State": "MA", "Zip_Code": "01803", "Zip4": "4913", "County": "MIDDLESEX", "Store_Type": "Super Store", "Latitude": 42.470795, "Longitude": -71.208344, "Incentive_Program": null, "Grantee_Name": null, "ObjectId": 41920 }, "geometry": { "type": "Point", "coordinates": [ -71.208344, 42.470795 ] } },
{ "type": "Feature", "properties": { "Record_ID": 706650, "Store_Name": "Star Market 2565", "Store_Street_Address": "699 Mount Auburn St", "Additonal_Address": null, "City": "Cambridge", "State": "MA", "Zip_Code": "02138", "Zip4": "4520", "County": "MIDDLESEX", "Store_Type": "Supermarket", "Latitude": 42.374809, "Longitude": -71.149384, "Incentive_Program": null, "Grantee_Name": null, "ObjectId": 41929 }, "geometry": { "type": "Point", "coordinates": [ -71.149384, 42.374809 ] } },
{ "type": "Feature", "properties": { "Record_ID": 617183, "Store_Name": "Star Market 4572", "Store_Street_Address": "370 Western Ave", "Additonal_Address": "Ste 1", "City": "Brighton", "State": "MA", "Zip_Code": "02135", "Zip4": "1008", "County": "SUFFOLK", "Store_Type": "Supermarket", "Latitude": 42.362808, "Longitude": -71.137779, "Incentive_Program": null, "Grantee_Name": null, "ObjectId": 42833 }, "geometry": { "type": "Point", "coordinates": [ -71.137779, 42.362808 ] } },
{ "type": "Feature", "properties": { "Record_ID": 708719, "Store_Name": "SHAW'S SUPERMARKET 1414", "Store_Street_Address": "230 Main St", "Additonal_Address": null, "City": "Medfield", "State": "MA", "Zip_Code": "02052", "Zip4": "1400", "County": "NORFOLK", "Store_Type": "Supermarket", "Latitude": 42.194267, "Longitude": -71.28997, "Incentive_Program": null, "Grantee_Name": null, "ObjectId": 43181 }, "geometry": { "type": "Point", "coordinates": [ -71.28997, 42.194267 ] } },
{ "type": "Feature", "properties": { "Record_ID": 708861, "Store_Name": "SHAW'S SUPERMARKET 2445", "Store_Street_Address": "739 Chief Justice Cushing Hwy", "Additonal_Address": null, "City": "Cohasset", "State": "MA", "Zip_Code": "02025", "Zip4": "2115", "County": "NORFOLK", "Store_Type": "Supermarket", "Latitude": 42.223167, "Longitude": -70.804337, "Incentive_Program": null, "Grantee_Name": null, "ObjectId": 43191 }, "geometry": { "type": "Point", "coordinates": [ -70.804337, 42.223167 ] } },
{ "type": "Feature", "properties": { "Record_ID": 709480, "Store_Name": "MARKET BASKET 54", "Store_Street_Address": "274 Hartford Ave", "Additonal_Address": null, "City": "Bellingham", "State": "MA", "Zip_Code": "02019", "Zip4": "3000", "County": "NORFOLK", "Store_Type": "Super Store", "Latitude": 42.115219, "Longitude": -71.46125, "Incentive_Program": null, "Grantee_Name": null, "ObjectId": 43428 }, "geometry": { "type": "Point", "coordinates": [ -71.46125, 42.115219 ] } },
{ "type": "Feature", "properties": { "Record_ID": 624267, "Store_Name": "Stop & Shop 43", "Store_Street_Address": "540 Squire Rd", "Additonal_Address": null, "City": "Revere", "State": "MA", "Zip_Code": "02151", "Zip4": "1863", "County": "SUFFOLK", "Store_Type": "Supermarket", "Latitude": 42.430508, "Longitude": -71.020592, "Incentive_Program": null, "Grantee_Name": null, "ObjectId": 43614 }, "geometry": { "type": "Point", "coordinates": [ -71.020592, 42.430508 ] } },
{ "type": "Feature", "properties": { "Record_ID": 645914, "Store_Name": "Star Market 2573", "Store_Street_Address": "130 Granite St", "Additonal_Address": null, "City": "Quincy", "State": "MA", "Zip_Code": "02169", "Zip4": "5060", "County": "NORFOLK", "Store_Type": "Supermarket", "Latitude": 42.245842, "Longitude": -71.006111, "Incentive_Program": null, "Grantee_Name": null, "ObjectId": 44031 }, "geometry": { "type": "Point", "coordinates": [ -71.006111, 42.245842 ] } },
{ "type": "Feature", "properties": { "Record_ID": 663092, "Store_Name": "SHAW'S SUPERMARKET 1208", "Store_Street_Address": "246 Border St", "Additonal_Address": null, "City": "East Boston", "State": "MA", "Zip_Code": "02128", "Zip4": "1618", "County": "SUFFOLK", "Store_Type": "Supermarket", "Latitude": 42.376163, "Longitude": -71.039841, "Incentive_Program": null, "Grantee_Name": null, "ObjectId": 44625 }, "geometry": { "type": "Point", "coordinates": [ -71.039841, 42.376163 ] } },
{ "type": "Feature", "properties": { "Record_ID": 644243, "Store_Name": "Walmart  2122", "Store_Street_Address": "30 Memorial Dr", "Additonal_Address": null, "City": "Avon", "State": "MA", "Zip_Code": "02322", "Zip4": "1919", "County": "NORFOLK", "Store_Type": "Super Store", "Latitude": 42.121487, "Longitude": -71.032898, "Incentive_Program": null, "Grantee_Name": null, "ObjectId": 44858 }, "geometry": { "type": "Point", "coordinates": [ -71.032898, 42.121487 ] } },
{ "type": "Feature", "properties": { "Record_ID": 639101, "Store_Name": "SHAW'S SUPERMARKET 677", "Store_Street_Address": "93 Prospect St", "Additonal_Address": null, "City": "Milford", "State": "MA", "Zip_Code": "01757", "Zip4": "3008", "County": "WORCESTER", "Store_Type": "Supermarket", "Latitude": 42.138435, "Longitude": -71.534897, "Incentive_Program": null, "Grantee_Name": null, "ObjectId": 45319 }, "geometry": { "type": "Point", "coordinates": [ -71.534897, 42.138435 ] } },
{ "type": "Feature", "properties": { "Record_ID": 765054, "Store_Name": "Whole Foods Market 10158", "Store_Street_Address": "181 Cambridge St", "Additonal_Address": null, "City": "Boston", "State": "MA", "Zip_Code": "02114", "Zip4": "2786", "County": "SUFFOLK", "Store_Type": "Super Store", "Latitude": 42.361298, "Longitude": -71.065445, "Incentive_Program": null, "Grantee_Name": null, "ObjectId": 45521 }, "geometry": { "type": "Point", "coordinates": [ -71.065445, 42.361298 ] } },
{ "type": "Feature", "properties": { "Record_ID": 641596, "Store_Name": "Hanscom AFB Commissary 2020", "Store_Street_Address": "1709 Griffis St", "Additonal_Address": "Bldg. A", "City": "Hanscom AFB", "State": "MA", "Zip_Code": "01731", "Zip4": "    ", "County": "MIDDLESEX", "Store_Type": "Supermarket", "Latitude": 42.461784, "Longitude": -71.287971, "Incentive_Program": null, "Grantee_Name": null, "ObjectId": 46089 }, "geometry": { "type": "Point", "coordinates": [ -71.287971, 42.461784 ] } },
{ "type": "Feature", "properties": { "Record_ID": 725294, "Store_Name": "Stop & Shop 482", "Store_Street_Address": "400 Chief Justice Cushing Hwy", "Additonal_Address": null, "City": "Cohasset", "State": "MA", "Zip_Code": "02025", "Zip4": "1608", "County": "NORFOLK", "Store_Type": "Supermarket", "Latitude": 42.233673, "Longitude": -70.82209, "Incentive_Program": null, "Grantee_Name": null, "ObjectId": 47120 }, "geometry": { "type": "Point", "coordinates": [ -70.82209, 42.233673 ] } },
{ "type": "Feature", "properties": { "Record_ID": 726114, "Store_Name": "Star Market 604", "Store_Street_Address": "4 River St", "Additonal_Address": null, "City": "Dorcheste", "State": "MA", "Zip_Code": "02124", "Zip4": "2929", "County": "SUFFOLK", "Store_Type": "Supermarket", "Latitude": 42.271946, "Longitude": -71.069702, "Incentive_Program": null, "Grantee_Name": null, "ObjectId": 47862 }, "geometry": { "type": "Point", "coordinates": [ -71.069702, 42.271946 ] } },
{ "type": "Feature", "properties": { "Record_ID": 732825, "Store_Name": "Walmart 2103", "Store_Street_Address": "550 Providence Hwy", "Additonal_Address": null, "City": "Walpole", "State": "MA", "Zip_Code": "02081", "Zip4": "4231", "County": "NORFOLK", "Store_Type": "Super Store", "Latitude": 42.14444, "Longitude": -71.216835, "Incentive_Program": null, "Grantee_Name": null, "ObjectId": 48007 }, "geometry": { "type": "Point", "coordinates": [ -71.216835, 42.14444 ] } },
{ "type": "Feature", "properties": { "Record_ID": 591279, "Store_Name": "Walmart  2139", "Store_Street_Address": "780 Lynnway", "Additonal_Address": null, "City": "Lynn", "State": "MA", "Zip_Code": "01905", "Zip4": "3026", "County": "ESSEX", "Store_Type": "Super Store", "Latitude": 42.449158, "Longitude": -70.963501, "Incentive_Program": null, "Grantee_Name": null, "ObjectId": 49133 }, "geometry": { "type": "Point", "coordinates": [ -70.963501, 42.449158 ] } },
{ "type": "Feature", "properties": { "Record_ID": 593086, "Store_Name": "BROTHERS SUPER MARKET", "Store_Street_Address": "46 Washington St", "Additonal_Address": null, "City": "Dorchester", "State": "MA", "Zip_Code": "02121", "Zip4": "3105", "County": "SUFFOLK", "Store_Type": "Super Store", "Latitude": 42.306992, "Longitude": -71.082207, "Incentive_Program": null, "Grantee_Name": null, "ObjectId": 49797 }, "geometry": { "type": "Point", "coordinates": [ -71.082207, 42.306992 ] } },
{ "type": "Feature", "properties": { "Record_ID": 677506, "Store_Name": "Stop & Shop 033", "Store_Street_Address": "278 Washington St # RT138", "Additonal_Address": null, "City": "Stoughton", "State": "MA", "Zip_Code": "02072", "Zip4": "1763", "County": "NORFOLK", "Store_Type": "Supermarket", "Latitude": 42.138275, "Longitude": -71.102295, "Incentive_Program": null, "Grantee_Name": null, "ObjectId": 51002 }, "geometry": { "type": "Point", "coordinates": [ -71.102295, 42.138275 ] } },
{ "type": "Feature", "properties": { "Record_ID": 784150, "Store_Name": "TARGET 1898", "Store_Street_Address": "7 Allstate Rd", "Additonal_Address": null, "City": "Dorchester", "State": "MA", "Zip_Code": "02125", "Zip4": "1663", "County": "SUFFOLK", "Store_Type": "Super Store", "Latitude": 42.325363, "Longitude": -71.063828, "Incentive_Program": null, "Grantee_Name": null, "ObjectId": 54050 }, "geometry": { "type": "Point", "coordinates": [ -71.063828, 42.325363 ] } },
{ "type": "Feature", "properties": { "Record_ID": 784447, "Store_Name": "Whole Foods Market 10233", "Store_Street_Address": "400 Cambridge Rd", "Additonal_Address": null, "City": "Woburn", "State": "MA", "Zip_Code": "01801", "Zip4": "6043", "County": "MIDDLESEX", "Store_Type": "Super Store", "Latitude": 42.460442, "Longitude": -71.165047, "Incentive_Program": null, "Grantee_Name": null, "ObjectId": 54097 }, "geometry": { "type": "Point", "coordinates": [ -71.165047, 42.460442 ] } },
{ "type": "Feature", "properties": { "Record_ID": 657446, "Store_Name": "SHAW'S SUPERMARKET 1404", "Store_Street_Address": "125 Pearl St", "Additonal_Address": null, "City": "Braintree", "State": "MA", "Zip_Code": "02184", "Zip4": "6525", "County": "NORFOLK", "Store_Type": "Supermarket", "Latitude": 42.202492, "Longitude": -71.001122, "Incentive_Program": null, "Grantee_Name": null, "ObjectId": 54494 }, "geometry": { "type": "Point", "coordinates": [ -71.001122, 42.202492 ] } },
{ "type": "Feature", "properties": { "Record_ID": 812221, "Store_Name": "PriceRite of Lynn 337", "Store_Street_Address": "395 Lynnway", "Additonal_Address": null, "City": "Lynn", "State": "MA", "Zip_Code": "01901", "Zip4": "1707", "County": "ESSEX", "Store_Type": "Super Store", "Latitude": 42.456924, "Longitude": -70.951492, "Incentive_Program": null, "Grantee_Name": null, "ObjectId": 55093 }, "geometry": { "type": "Point", "coordinates": [ -70.951492, 42.456924 ] } },
{ "type": "Feature", "properties": { "Record_ID": 696185, "Store_Name": "Stop & Shop 776", "Store_Street_Address": "905 Massachusetts Ave", "Additonal_Address": null, "City": "Arlington", "State": "MA", "Zip_Code": "02476", "Zip4": "4706", "County": "MIDDLESEX", "Store_Type": "Supermarket", "Latitude": 42.417725, "Longitude": -71.164413, "Incentive_Program": null, "Grantee_Name": null, "ObjectId": 55304 }, "geometry": { "type": "Point", "coordinates": [ -71.164413, 42.417725 ] } },
{ "type": "Feature", "properties": { "Record_ID": 734336, "Store_Name": "COMPARE SUPERMARKET", "Store_Street_Address": "2A Adams Street Ext", "Additonal_Address": null, "City": "Lynn", "State": "MA", "Zip_Code": "01902", "Zip4": "2633", "County": "ESSEX", "Store_Type": "Super Store", "Latitude": 42.474812, "Longitude": -70.939415, "Incentive_Program": null, "Grantee_Name": null, "ObjectId": 56135 }, "geometry": { "type": "Point", "coordinates": [ -70.939415, 42.474812 ] } },
{ "type": "Feature", "properties": { "Record_ID": 1008159, "Store_Name": "ALDI 73079", "Store_Street_Address": "630 Fellsway", "Additonal_Address": null, "City": "Medford", "State": "MA", "Zip_Code": "02155", "Zip4": "4902", "County": "MIDDLESEX", "Store_Type": "Supermarket", "Latitude": 42.406914, "Longitude": -71.083893, "Incentive_Program": null, "Grantee_Name": null, "ObjectId": 62422 }, "geometry": { "type": "Point", "coordinates": [ -71.083893, 42.406914 ] } },
{ "type": "Feature", "properties": { "Record_ID": 915698, "Store_Name": "Target 2532", "Store_Street_Address": "1167 Washington St", "Additonal_Address": null, "City": "Hanover", "State": "MA", "Zip_Code": "02339", "Zip4": "1643", "County": "PLYMOUTH", "Store_Type": "Super Store", "Latitude": 42.136971, "Longitude": -70.841721, "Incentive_Program": null, "Grantee_Name": null, "ObjectId": 64798 }, "geometry": { "type": "Point", "coordinates": [ -70.841721, 42.136971 ] } },
{ "type": "Feature", "properties": { "Record_ID": 822488, "Store_Name": "Target 1281", "Store_Street_Address": "250 Fortune Blvd", "Additonal_Address": null, "City": "Milford", "State": "MA", "Zip_Code": "01757", "Zip4": "1743", "County": "WORCESTER", "Store_Type": "Super Store", "Latitude": 42.159645, "Longitude": -71.499519, "Incentive_Program": null, "Grantee_Name": null, "ObjectId": 67634 }, "geometry": { "type": "Point", "coordinates": [ -71.499519, 42.159645 ] } },
{ "type": "Feature", "properties": { "Record_ID": 918850, "Store_Name": "Trader Joe's 517", "Store_Street_Address": "211 Alewife Brook Pkwy", "Additonal_Address": null, "City": "Cambridge", "State": "MA", "Zip_Code": "02138", "Zip4": "1101", "County": "MIDDLESEX", "Store_Type": "Supermarket", "Latitude": 42.389183, "Longitude": -71.142929, "Incentive_Program": null, "Grantee_Name": null, "ObjectId": 68697 }, "geometry": { "type": "Point", "coordinates": [ -71.142929, 42.389183 ] } },
{ "type": "Feature", "properties": { "Record_ID": 744075, "Store_Name": "Whole Foods Market 10222", "Store_Street_Address": "331 Paradise Rd", "Additonal_Address": null, "City": "Swampscott", "State": "MA", "Zip_Code": "01907", "Zip4": "2928", "County": "ESSEX", "Store_Type": "Super Store", "Latitude": 42.481483, "Longitude": -70.902718, "Incentive_Program": null, "Grantee_Name": null, "ObjectId": 71167 }, "geometry": { "type": "Point", "coordinates": [ -70.902718, 42.481483 ] } },
{ "type": "Feature", "properties": { "Record_ID": 745109, "Store_Name": "Stop & Shop 11", "Store_Street_Address": "40 Furlong Dr", "Additonal_Address": null, "City": "Revere", "State": "MA", "Zip_Code": "02151", "Zip4": "4006", "County": "SUFFOLK", "Store_Type": "Supermarket", "Latitude": 42.400757, "Longitude": -71.00148, "Incentive_Program": null, "Grantee_Name": null, "ObjectId": 71579 }, "geometry": { "type": "Point", "coordinates": [ -71.00148, 42.400757 ] } },
{ "type": "Feature", "properties": { "Record_ID": 920028, "Store_Name": "Shaw's Supermarket 645", "Store_Street_Address": "1 Boylston St", "Additonal_Address": null, "City": "Chestnut Hill", "State": "MA", "Zip_Code": "02467", "Zip4": "1719", "County": "NORFOLK", "Store_Type": "Supermarket", "Latitude": 42.323238, "Longitude": -71.165001, "Incentive_Program": null, "Grantee_Name": null, "ObjectId": 71923 }, "geometry": { "type": "Point", "coordinates": [ -71.165001, 42.323238 ] } },
{ "type": "Feature", "properties": { "Record_ID": 881447, "Store_Name": "BJ's Wholesale Club 18", "Store_Street_Address": "622 Washington St", "Additonal_Address": null, "City": "Weymouth", "State": "MA", "Zip_Code": "02188", "Zip4": "3442", "County": "NORFOLK", "Store_Type": "Super Store", "Latitude": 42.204304, "Longitude": -70.95163, "Incentive_Program": null, "Grantee_Name": null, "ObjectId": 73551 }, "geometry": { "type": "Point", "coordinates": [ -70.95163, 42.204304 ] } },
{ "type": "Feature", "properties": { "Record_ID": 881489, "Store_Name": "BJ's Wholesale Club 34", "Store_Street_Address": "901 Technology Center Dr", "Additonal_Address": null, "City": "Stoughton", "State": "MA", "Zip_Code": "02072", "Zip4": "4707", "County": "NORFOLK", "Store_Type": "Super Store", "Latitude": 42.14925, "Longitude": -71.064476, "Incentive_Program": null, "Grantee_Name": null, "ObjectId": 73656 }, "geometry": { "type": "Point", "coordinates": [ -71.064476, 42.14925 ] } },
{ "type": "Feature", "properties": { "Record_ID": 881509, "Store_Name": "BJ's Wholesale Club 47", "Store_Street_Address": "26 Whittier St", "Additonal_Address": null, "City": "Framingham", "State": "MA", "Zip_Code": "01701", "Zip4": "4621", "County": "MIDDLESEX", "Store_Type": "Super Store", "Latitude": 42.307735, "Longitude": -71.397324, "Incentive_Program": null, "Grantee_Name": null, "ObjectId": 73705 }, "geometry": { "type": "Point", "coordinates": [ -71.397324, 42.307735 ] } },
{ "type": "Feature", "properties": { "Record_ID": 881640, "Store_Name": "BJ's Wholesale Club 101", "Store_Street_Address": "688 Providence Hwy", "Additonal_Address": null, "City": "Dedham", "State": "MA", "Zip_Code": "02026", "Zip4": "6800", "County": "NORFOLK", "Store_Type": "Super Store", "Latitude": 42.239864, "Longitude": -71.177193, "Incentive_Program": null, "Grantee_Name": null, "ObjectId": 73947 }, "geometry": { "type": "Point", "coordinates": [ -71.177193, 42.239864 ] } },
{ "type": "Feature", "properties": { "Record_ID": 1289522, "Store_Name": "Whole Foods Market 10691", "Store_Street_Address": "536 Boston Post Rd", "Additonal_Address": null, "City": "Sudbury", "State": "MA", "Zip_Code": "01776", "Zip4": "3377", "County": "MIDDLESEX", "Store_Type": "Super Store", "Latitude": 42.360294, "Longitude": -71.431129, "Incentive_Program": null, "Grantee_Name": null, "ObjectId": 74636 }, "geometry": { "type": "Point", "coordinates": [ -71.431129, 42.360294 ] } },
{ "type": "Feature", "properties": { "Record_ID": 858773, "Store_Name": "Trader Joe's 506", "Store_Street_Address": "358 Broadway", "Additonal_Address": "Unit B", "City": "Saugus", "State": "MA", "Zip_Code": "01906", "Zip4": "    ", "County": "ESSEX", "Store_Type": "Supermarket", "Latitude": 42.480515, "Longitude": -71.021049, "Incentive_Program": null, "Grantee_Name": null, "ObjectId": 74875 }, "geometry": { "type": "Point", "coordinates": [ -71.021049, 42.480515 ] } },
{ "type": "Feature", "properties": { "Record_ID": 903088, "Store_Name": "H Mart", "Store_Street_Address": "3 Old Concord Rd", "Additonal_Address": null, "City": "Burlington", "State": "MA", "Zip_Code": "01803", "Zip4": "5116", "County": "MIDDLESEX", "Store_Type": "Super Store", "Latitude": 42.475822, "Longitude": -71.210999, "Incentive_Program": null, "Grantee_Name": null, "ObjectId": 75276 }, "geometry": { "type": "Point", "coordinates": [ -71.210999, 42.475822 ] } },
{ "type": "Feature", "properties": { "Record_ID": 923642, "Store_Name": "Costco Wholesale 0303", "Store_Street_Address": "120 Stockwell Dr", "Additonal_Address": null, "City": "Avon", "State": "MA", "Zip_Code": "02322", "Zip4": "1149", "County": "NORFOLK", "Store_Type": "Super Store", "Latitude": 42.13493, "Longitude": -71.067764, "Incentive_Program": null, "Grantee_Name": null, "ObjectId": 75636 }, "geometry": { "type": "Point", "coordinates": [ -71.067764, 42.13493 ] } },
{ "type": "Feature", "properties": { "Record_ID": 923647, "Store_Name": "Costco Wholesale 0308", "Store_Street_Address": "71 2nd Ave", "Additonal_Address": null, "City": "Waltham", "State": "MA", "Zip_Code": "02451", "Zip4": "1107", "County": "MIDDLESEX", "Store_Type": "Super Store", "Latitude": 42.396858, "Longitude": -71.264046, "Incentive_Program": null, "Grantee_Name": null, "ObjectId": 75663 }, "geometry": { "type": "Point", "coordinates": [ -71.264046, 42.396858 ] } },
{ "type": "Feature", "properties": { "Record_ID": 923653, "Store_Name": "Costco Wholesale 0319", "Store_Street_Address": "200 Legacy Blvd", "Additonal_Address": null, "City": "Dedham", "State": "MA", "Zip_Code": "02026", "Zip4": "2653", "County": "NORFOLK", "Store_Type": "Super Store", "Latitude": 42.230583, "Longitude": -71.173866, "Incentive_Program": null, "Grantee_Name": null, "ObjectId": 75739 }, "geometry": { "type": "Point", "coordinates": [ -71.173866, 42.230583 ] } },
{ "type": "Feature", "properties": { "Record_ID": 923665, "Store_Name": "Costco Wholesale 0333", "Store_Street_Address": "2 Mystic View Rd", "Additonal_Address": null, "City": "Everett", "State": "MA", "Zip_Code": "02149", "Zip4": "2428", "County": "MIDDLESEX", "Store_Type": "Super Store", "Latitude": 42.401501, "Longitude": -71.070427, "Incentive_Program": null, "Grantee_Name": null, "ObjectId": 75762 }, "geometry": { "type": "Point", "coordinates": [ -71.070427, 42.401501 ] } },
{ "type": "Feature", "properties": { "Record_ID": 884399, "Store_Name": "BJ's Wholesale Club 175", "Store_Street_Address": "5 Ward St", "Additonal_Address": null, "City": "Revere", "State": "MA", "Zip_Code": "02151", "Zip4": "    ", "County": "SUFFOLK", "Store_Type": "Super Store", "Latitude": 42.422585, "Longitude": -71.004112, "Incentive_Program": null, "Grantee_Name": null, "ObjectId": 77942 }, "geometry": { "type": "Point", "coordinates": [ -71.004112, 42.422585 ] } },
{ "type": "Feature", "properties": { "Record_ID": 951097, "Store_Name": "BJ's Wholesale Club 205", "Store_Street_Address": "66 Seyon St", "Additonal_Address": null, "City": "Waltham", "State": "MA", "Zip_Code": "02453", "Zip4": "8336", "County": "MIDDLESEX", "Store_Type": "Super Store", "Latitude": 42.370724, "Longitude": -71.214661, "Incentive_Program": null, "Grantee_Name": null, "ObjectId": 78117 }, "geometry": { "type": "Point", "coordinates": [ -71.214661, 42.370724 ] } },
{ "type": "Feature", "properties": { "Record_ID": 936149, "Store_Name": "Pricerite of Hyde Park 339", "Store_Street_Address": "870 River St", "Additonal_Address": null, "City": "Hyde Park", "State": "MA", "Zip_Code": "02136", "Zip4": "3715", "County": "SUFFOLK", "Store_Type": "Super Store", "Latitude": 42.262119, "Longitude": -71.108963, "Incentive_Program": null, "Grantee_Name": null, "ObjectId": 79425 }, "geometry": { "type": "Point", "coordinates": [ -71.108963, 42.262119 ] } },
{ "type": "Feature", "properties": { "Record_ID": 1293667, "Store_Name": "Market Basket 82", "Store_Street_Address": "40 Federal St", "Additonal_Address": null, "City": "Lynn", "State": "MA", "Zip_Code": "01905", "Zip4": "2212", "County": "ESSEX", "Store_Type": "Super Store", "Latitude": 42.464664, "Longitude": -70.96727, "Incentive_Program": null, "Grantee_Name": null, "ObjectId": 81242 }, "geometry": { "type": "Point", "coordinates": [ -70.96727, 42.464664 ] } },
{ "type": "Feature", "properties": { "Record_ID": 1292492, "Store_Name": "Trader Joe's 560", "Store_Street_Address": "145 Middlesex Ave", "Additonal_Address": null, "City": "Somerville", "State": "MA", "Zip_Code": "02145", "Zip4": "1105", "County": "MIDDLESEX", "Store_Type": "Supermarket", "Latitude": 42.394833, "Longitude": -71.083595, "Incentive_Program": null, "Grantee_Name": null, "ObjectId": 81276 }, "geometry": { "type": "Point", "coordinates": [ -71.083595, 42.394833 ] } },
{ "type": "Feature", "properties": { "Record_ID": 945117, "Store_Name": "BJ's Wholesale Club 353", "Store_Street_Address": "200 Crown Colony Dr", "Additonal_Address": null, "City": "Quincy", "State": "MA", "Zip_Code": "02169", "Zip4": "0959", "County": "NORFOLK", "Store_Type": "Super Store", "Latitude": 42.232372, "Longitude": -71.013748, "Incentive_Program": null, "Grantee_Name": null, "ObjectId": 83268 }, "geometry": { "type": "Point", "coordinates": [ -71.013748, 42.232372 ] } },
{ "type": "Feature", "properties": { "Record_ID": 945435, "Store_Name": "Bowdoin Food Corp", "Store_Street_Address": "217 Bowdoin St", "Additonal_Address": null, "City": "Dorchester", "State": "MA", "Zip_Code": "02122", "Zip4": "1809", "County": "SUFFOLK", "Store_Type": "Super Store", "Latitude": 42.305576, "Longitude": -71.067711, "Incentive_Program": null, "Grantee_Name": null, "ObjectId": 83473 }, "geometry": { "type": "Point", "coordinates": [ -71.067711, 42.305576 ] } },
{ "type": "Feature", "properties": { "Record_ID": 889780, "Store_Name": "BJ's Wholesale Club 1", "Store_Street_Address": "278 Middlesex Ave", "Additonal_Address": null, "City": "Medford", "State": "MA", "Zip_Code": "02155", "Zip4": "5089", "County": "MIDDLESEX", "Store_Type": "Super Store", "Latitude": 42.412514, "Longitude": -71.079247, "Incentive_Program": null, "Grantee_Name": null, "ObjectId": 87436 }, "geometry": { "type": "Point", "coordinates": [ -71.079247, 42.412514 ] } },
{ "type": "Feature", "properties": { "Record_ID": 911738, "Store_Name": "Whole Foods Market 10319", "Store_Street_Address": "300 Legacy Pl", "Additonal_Address": null, "City": "Dedham", "State": "MA", "Zip_Code": "02026", "Zip4": "    ", "County": "NORFOLK", "Store_Type": "Super Store", "Latitude": 42.232452, "Longitude": -71.177567, "Incentive_Program": null, "Grantee_Name": null, "ObjectId": 87801 }, "geometry": { "type": "Point", "coordinates": [ -71.177567, 42.232452 ] } },
{ "type": "Feature", "properties": { "Record_ID": 866027, "Store_Name": "Patel Brothers", "Store_Street_Address": "425 Moody St", "Additonal_Address": null, "City": "Waltham", "State": "MA", "Zip_Code": "02453", "Zip4": "0401", "County": "MIDDLESEX", "Store_Type": "Super Store", "Latitude": 42.368835, "Longitude": -71.237358, "Incentive_Program": null, "Grantee_Name": null, "ObjectId": 89283 }, "geometry": { "type": "Point", "coordinates": [ -71.237358, 42.368835 ] } },
{ "type": "Feature", "properties": { "Record_ID": 1649988, "Store_Name": "Stop & Shop 459", "Store_Street_Address": "460 Blue Hill Ave", "Additonal_Address": null, "City": "Dorchester", "State": "MA", "Zip_Code": "02121", "Zip4": "4308", "County": "SUFFOLK", "Store_Type": "Supermarket", "Latitude": 42.309196, "Longitude": -71.081177, "Incentive_Program": null, "Grantee_Name": null, "ObjectId": 89651 }, "geometry": { "type": "Point", "coordinates": [ -71.081177, 42.309196 ] } },
{ "type": "Feature", "properties": { "Record_ID": 1650000, "Store_Name": "Stop & Shop 20", "Store_Street_Address": "65 Newport Ave", "Additonal_Address": "Ste 1", "City": "Quincy", "State": "MA", "Zip_Code": "02171", "Zip4": "2643", "County": "NORFOLK", "Store_Type": "Supermarket", "Latitude": 42.271111, "Longitude": -71.026657, "Incentive_Program": null, "Grantee_Name": null, "ObjectId": 89664 }, "geometry": { "type": "Point", "coordinates": [ -71.026657, 42.271111 ] } },
{ "type": "Feature", "properties": { "Record_ID": 1078275, "Store_Name": "Stop & Shop 2700", "Store_Street_Address": "101 Andrew Ave", "Additonal_Address": null, "City": "Wayland", "State": "MA", "Zip_Code": "01778", "Zip4": "3027", "County": "MIDDLESEX", "Store_Type": "Supermarket", "Latitude": 42.36441, "Longitude": -71.366211, "Incentive_Program": null, "Grantee_Name": null, "ObjectId": 93412 }, "geometry": { "type": "Point", "coordinates": [ -71.366211, 42.36441 ] } },
{ "type": "Feature", "properties": { "Record_ID": 867024, "Store_Name": "Target 2258", "Store_Street_Address": "1 Hawes Way", "Additonal_Address": null, "City": "Stoughton", "State": "MA", "Zip_Code": "02072", "Zip4": "1162", "County": "NORFOLK", "Store_Type": "Super Store", "Latitude": 42.15337, "Longitude": -71.07357, "Incentive_Program": null, "Grantee_Name": null, "ObjectId": 93641 }, "geometry": { "type": "Point", "coordinates": [ -71.07357, 42.15337 ] } },
{ "type": "Feature", "properties": { "Record_ID": 1052674, "Store_Name": "Pemberton Fruit Orchard Inc DBA/ Pemberton Farms", "Store_Street_Address": "2225 Massachusetts Ave", "Additonal_Address": null, "City": "Cambridge", "State": "MA", "Zip_Code": "02140", "Zip4": "1211", "County": "MIDDLESEX", "Store_Type": "Super Store", "Latitude": 42.393837, "Longitude": -71.125664, "Incentive_Program": null, "Grantee_Name": null, "ObjectId": 94444 }, "geometry": { "type": "Point", "coordinates": [ -71.125664, 42.393837 ] } },
{ "type": "Feature", "properties": { "Record_ID": 1105529, "Store_Name": "Whole Foods Market 10506", "Store_Street_Address": "35 Pleasant St", "Additonal_Address": null, "City": "South Weymouth", "State": "MA", "Zip_Code": "02190", "Zip4": "    ", "County": "NORFOLK", "Store_Type": "Super Store", "Latitude": 42.172569, "Longitude": -70.954124, "Incentive_Program": null, "Grantee_Name": null, "ObjectId": 95018 }, "geometry": { "type": "Point", "coordinates": [ -70.954124, 42.172569 ] } },
{ "type": "Feature", "properties": { "Record_ID": 1108651, "Store_Name": "Whole Foods Market 10510", "Store_Street_Address": "880 Main St", "Additonal_Address": null, "City": "Melrose", "State": "MA", "Zip_Code": "02176", "Zip4": "2346", "County": "MIDDLESEX", "Store_Type": "Super Store", "Latitude": 42.464516, "Longitude": -71.061813, "Incentive_Program": null, "Grantee_Name": null, "ObjectId": 97739 }, "geometry": { "type": "Point", "coordinates": [ -71.061813, 42.464516 ] } },
{ "type": "Feature", "properties": { "Record_ID": 1109788, "Store_Name": "Whole Foods Market 10509", "Store_Street_Address": "50 Austin St", "Additonal_Address": null, "City": "Charlestown", "State": "MA", "Zip_Code": "02129", "Zip4": "3507", "County": "SUFFOLK", "Store_Type": "Super Store", "Latitude": 42.374722, "Longitude": -71.066093, "Incentive_Program": null, "Grantee_Name": null, "ObjectId": 97761 }, "geometry": { "type": "Point", "coordinates": [ -71.066093, 42.374722 ] } },
{ "type": "Feature", "properties": { "Record_ID": 899451, "Store_Name": "Target 1942", "Store_Street_Address": "36 Furlong Dr", "Additonal_Address": null, "City": "Revere", "State": "MA", "Zip_Code": "02151", "Zip4": "4006", "County": "SUFFOLK", "Store_Type": "Super Store", "Latitude": 42.400856, "Longitude": -71.001801, "Incentive_Program": null, "Grantee_Name": null, "ObjectId": 99001 }, "geometry": { "type": "Point", "coordinates": [ -71.001801, 42.400856 ] } },
{ "type": "Feature", "properties": { "Record_ID": 899395, "Store_Name": "Target 1229", "Store_Street_Address": "1 Mystic View Rd", "Additonal_Address": null, "City": "Everett", "State": "MA", "Zip_Code": "02149", "Zip4": "2428", "County": "MIDDLESEX", "Store_Type": "Super Store", "Latitude": 42.401554, "Longitude": -71.070366, "Incentive_Program": null, "Grantee_Name": null, "ObjectId": 99301 }, "geometry": { "type": "Point", "coordinates": [ -71.070366, 42.401554 ] } },
{ "type": "Feature", "properties": { "Record_ID": 899407, "Store_Name": "Target 1290", "Store_Street_Address": "400 Lynn Fells Pkwy", "Additonal_Address": "Ste 1", "City": "Saugus", "State": "MA", "Zip_Code": "01906", "Zip4": "3100", "County": "ESSEX", "Store_Type": "Super Store", "Latitude": 42.48035, "Longitude": -71.024078, "Incentive_Program": null, "Grantee_Name": null, "ObjectId": 99309 }, "geometry": { "type": "Point", "coordinates": [ -71.024078, 42.48035 ] } },
{ "type": "Feature", "properties": { "Record_ID": 899409, "Store_Name": "Target 1308", "Store_Street_Address": "400 Cochituate Rd", "Additonal_Address": "Ste 1", "City": "Framingham", "State": "MA", "Zip_Code": "01701", "Zip4": "4655", "County": "MIDDLESEX", "Store_Type": "Super Store", "Latitude": 42.304207, "Longitude": -71.398689, "Incentive_Program": null, "Grantee_Name": null, "ObjectId": 99310 }, "geometry": { "type": "Point", "coordinates": [ -71.398689, 42.304207 ] } },
{ "type": "Feature", "properties": { "Record_ID": 899428, "Store_Name": "Target 1441", "Store_Street_Address": "180 Somerville Ave", "Additonal_Address": null, "City": "Somerville", "State": "MA", "Zip_Code": "02143", "Zip4": "3405", "County": "MIDDLESEX", "Store_Type": "Super Store", "Latitude": 42.377598, "Longitude": -71.090118, "Incentive_Program": null, "Grantee_Name": null, "ObjectId": 99320 }, "geometry": { "type": "Point", "coordinates": [ -71.090118, 42.377598 ] } },
{ "type": "Feature", "properties": { "Record_ID": 899434, "Store_Name": "Target 1442", "Store_Street_Address": "550 Arsenal St", "Additonal_Address": "Ste 1", "City": "Watertown", "State": "MA", "Zip_Code": "02472", "Zip4": "2844", "County": "MIDDLESEX", "Store_Type": "Super Store", "Latitude": 42.362946, "Longitude": -71.157845, "Incentive_Program": null, "Grantee_Name": null, "ObjectId": 99321 }, "geometry": { "type": "Point", "coordinates": [ -71.157845, 42.362946 ] } },
{ "type": "Feature", "properties": { "Record_ID": 1137898, "Store_Name": "Water Street Meat Market", "Store_Street_Address": "3 Water St", "Additonal_Address": null, "City": "Milford", "State": "MA", "Zip_Code": "01757", "Zip4": "    ", "County": "WORCESTER", "Store_Type": "Supermarket", "Latitude": 42.138203, "Longitude": -71.522514, "Incentive_Program": null, "Grantee_Name": null, "ObjectId": 99453 }, "geometry": { "type": "Point", "coordinates": [ -71.522514, 42.138203 ] } },
{ "type": "Feature", "properties": { "Record_ID": 1635838, "Store_Name": "Wagon Wheel", "Store_Street_Address": "927 Waltham St", "Additonal_Address": null, "City": "Lexington", "State": "MA", "Zip_Code": "02421", "Zip4": "8099", "County": "MIDDLESEX", "Store_Type": "Supermarket", "Latitude": 42.417744, "Longitude": -71.231956, "Incentive_Program": null, "Grantee_Name": null, "ObjectId": 99573 }, "geometry": { "type": "Point", "coordinates": [ -71.231956, 42.417744 ] } },
{ "type": "Feature", "properties": { "Record_ID": 1016013, "Store_Name": "Whole Foods Market 10413", "Store_Street_Address": "442 Washington St", "Additonal_Address": null, "City": "Wellesley", "State": "MA", "Zip_Code": "02482", "Zip4": "6211", "County": "NORFOLK", "Store_Type": "Super Store", "Latitude": 42.303188, "Longitude": -71.2854, "Incentive_Program": null, "Grantee_Name": null, "ObjectId": 101363 }, "geometry": { "type": "Point", "coordinates": [ -71.2854, 42.303188 ] } },
{ "type": "Feature", "properties": { "Record_ID": 1141689, "Store_Name": "Wegmans 124", "Store_Street_Address": "200 Boylston St", "Additonal_Address": null, "City": "Chestnut Hill", "State": "MA", "Zip_Code": "02467", "Zip4": "2012", "County": "NORFOLK", "Store_Type": "Supermarket", "Latitude": 42.318905, "Longitude": -71.175186, "Incentive_Program": null, "Grantee_Name": null, "ObjectId": 101660 }, "geometry": { "type": "Point", "coordinates": [ -71.175186, 42.318905 ] } },
{ "type": "Feature", "properties": { "Record_ID": 1150973, "Store_Name": "Brothers Marketplace 402", "Store_Street_Address": "41 Center St", "Additonal_Address": null, "City": "Weston", "State": "MA", "Zip_Code": "02493", "Zip4": "1544", "County": "MIDDLESEX", "Store_Type": "Supermarket", "Latitude": 42.367016, "Longitude": -71.300652, "Incentive_Program": null, "Grantee_Name": null, "ObjectId": 103282 }, "geometry": { "type": "Point", "coordinates": [ -71.300652, 42.367016 ] } },
{ "type": "Feature", "properties": { "Record_ID": 1115481, "Store_Name": "Whole Foods Market 10507", "Store_Street_Address": "808 Massachusets St", "Additonal_Address": null, "City": "Arlington", "State": "MA", "Zip_Code": "02476", "Zip4": "    ", "County": "MIDDLESEX", "Store_Type": "Super Store", "Latitude": 42.41663, "Longitude": -71.159439, "Incentive_Program": null, "Grantee_Name": null, "ObjectId": 105921 }, "geometry": { "type": "Point", "coordinates": [ -71.159439, 42.41663 ] } },
{ "type": "Feature", "properties": { "Record_ID": 1649944, "Store_Name": "Stop & Shop 18", "Store_Street_Address": "545 Freeport St", "Additonal_Address": null, "City": "Dorchester", "State": "MA", "Zip_Code": "02122", "Zip4": "3309", "County": "SUFFOLK", "Store_Type": "Supermarket", "Latitude": 42.292538, "Longitude": -71.048729, "Incentive_Program": null, "Grantee_Name": null, "ObjectId": 106652 }, "geometry": { "type": "Point", "coordinates": [ -71.048729, 42.292538 ] } },
{ "type": "Feature", "properties": { "Record_ID": 1156986, "Store_Name": "Brothers Marketplace 401", "Store_Street_Address": "446 Main St", "Additonal_Address": null, "City": "Medfield", "State": "MA", "Zip_Code": "02052", "Zip4": "2008", "County": "NORFOLK", "Store_Type": "Supermarket", "Latitude": 42.187012, "Longitude": -71.304436, "Incentive_Program": null, "Grantee_Name": null, "ObjectId": 108828 }, "geometry": { "type": "Point", "coordinates": [ -71.304436, 42.187012 ] } },
{ "type": "Feature", "properties": { "Record_ID": 1157055, "Store_Name": "Ngf Inc/ Baza", "Store_Street_Address": "30 Tower Rd", "Additonal_Address": null, "City": "Newton Upper Falls", "State": "MA", "Zip_Code": "02464", "Zip4": "1511", "County": "MIDDLESEX", "Store_Type": "Super Store", "Latitude": 42.31102, "Longitude": -71.215263, "Incentive_Program": null, "Grantee_Name": null, "ObjectId": 108839 }, "geometry": { "type": "Point", "coordinates": [ -71.215263, 42.31102 ] } },
{ "type": "Feature", "properties": { "Record_ID": 1119894, "Store_Name": "Trader Joe's 530", "Store_Street_Address": "5 Essington Dr", "Additonal_Address": "Bldg T", "City": "Hingham", "State": "MA", "Zip_Code": "02043", "Zip4": "1671", "County": "PLYMOUTH", "Store_Type": "Supermarket", "Latitude": 42.249249, "Longitude": -70.925278, "Incentive_Program": null, "Grantee_Name": null, "ObjectId": 109091 }, "geometry": { "type": "Point", "coordinates": [ -70.925278, 42.249249 ] } },
{ "type": "Feature", "properties": { "Record_ID": 1024465, "Store_Name": "Whole Foods Market 10438", "Store_Street_Address": "415 Centre St", "Additonal_Address": null, "City": "Jamaica Plain", "State": "MA", "Zip_Code": "02130", "Zip4": "1849", "County": "SUFFOLK", "Store_Type": "Super Store", "Latitude": 42.321117, "Longitude": -71.110497, "Incentive_Program": null, "Grantee_Name": null, "ObjectId": 110133 }, "geometry": { "type": "Point", "coordinates": [ -71.110497, 42.321117 ] } },
{ "type": "Feature", "properties": { "Record_ID": 1071636, "Store_Name": "The Fresh Market 113", "Store_Street_Address": "11 Essington Dr", "Additonal_Address": null, "City": "Hingham", "State": "MA", "Zip_Code": "02043", "Zip4": "1671", "County": "PLYMOUTH", "Store_Type": "Supermarket", "Latitude": 42.249287, "Longitude": -70.925148, "Incentive_Program": null, "Grantee_Name": null, "ObjectId": 110634 }, "geometry": { "type": "Point", "coordinates": [ -70.925148, 42.249287 ] } },
{ "type": "Feature", "properties": { "Record_ID": 967779, "Store_Name": "ALDI 73078", "Store_Street_Address": "225 E Main St", "Additonal_Address": null, "City": "Milford", "State": "MA", "Zip_Code": "01757", "Zip4": "2807", "County": "WORCESTER", "Store_Type": "Supermarket", "Latitude": 42.150757, "Longitude": -71.498238, "Incentive_Program": null, "Grantee_Name": null, "ObjectId": 112439 }, "geometry": { "type": "Point", "coordinates": [ -71.498238, 42.150757 ] } },
{ "type": "Feature", "properties": { "Record_ID": 1093283, "Store_Name": "Whole Foods Market 10511", "Store_Street_Address": "45 Beacon St", "Additonal_Address": null, "City": "Somerville", "State": "MA", "Zip_Code": "02143", "Zip4": "4323", "County": "MIDDLESEX", "Store_Type": "Super Store", "Latitude": 42.375813, "Longitude": -71.103241, "Incentive_Program": null, "Grantee_Name": null, "ObjectId": 114139 }, "geometry": { "type": "Point", "coordinates": [ -71.103241, 42.375813 ] } },
{ "type": "Feature", "properties": { "Record_ID": 1189291, "Store_Name": "Roche Bros 121", "Store_Street_Address": "8 Summer St", "Additonal_Address": null, "City": "Boston", "State": "MA", "Zip_Code": "02110", "Zip4": "1002", "County": "SUFFOLK", "Store_Type": "Supermarket", "Latitude": 42.355274, "Longitude": -71.060165, "Incentive_Program": null, "Grantee_Name": null, "ObjectId": 115089 }, "geometry": { "type": "Point", "coordinates": [ -71.060165, 42.355274 ] } },
{ "type": "Feature", "properties": { "Record_ID": 1215802, "Store_Name": "Wegmans 57", "Store_Street_Address": "169 University Ave", "Additonal_Address": null, "City": "Westwood", "State": "MA", "Zip_Code": "02090", "Zip4": "2325", "County": "NORFOLK", "Store_Type": "Supermarket", "Latitude": 42.206135, "Longitude": -71.152328, "Incentive_Program": null, "Grantee_Name": null, "ObjectId": 115817 }, "geometry": { "type": "Point", "coordinates": [ -71.152328, 42.206135 ] } },
{ "type": "Feature", "properties": { "Record_ID": 1129970, "Store_Name": "H Mart Cambridge LLC", "Store_Street_Address": "581 Massachusetts Ave", "Additonal_Address": null, "City": "Cambridge", "State": "MA", "Zip_Code": "02139", "Zip4": "4030", "County": "MIDDLESEX", "Store_Type": "Super Store", "Latitude": 42.364857, "Longitude": -71.102745, "Incentive_Program": null, "Grantee_Name": null, "ObjectId": 117977 }, "geometry": { "type": "Point", "coordinates": [ -71.102745, 42.364857 ] } },
{ "type": "Feature", "properties": { "Record_ID": 972444, "Store_Name": "PriceRite of Revere 341", "Store_Street_Address": "255 Squire Rd", "Additonal_Address": null, "City": "Revere", "State": "MA", "Zip_Code": "02151", "Zip4": "4322", "County": "SUFFOLK", "Store_Type": "Super Store", "Latitude": 42.42638, "Longitude": -71.012703, "Incentive_Program": null, "Grantee_Name": null, "ObjectId": 119221 }, "geometry": { "type": "Point", "coordinates": [ -71.012703, 42.42638 ] } },
{ "type": "Feature", "properties": { "Record_ID": 970918, "Store_Name": "Target 2693", "Store_Street_Address": "250 Granite St", "Additonal_Address": "Ste 21", "City": "Braintree", "State": "MA", "Zip_Code": "02184", "Zip4": "2810", "County": "NORFOLK", "Store_Type": "Super Store", "Latitude": 42.220516, "Longitude": -71.027985, "Incentive_Program": null, "Grantee_Name": null, "ObjectId": 119693 }, "geometry": { "type": "Point", "coordinates": [ -71.027985, 42.220516 ] } },
{ "type": "Feature", "properties": { "Record_ID": 1273656, "Store_Name": "bFresh 2420", "Store_Street_Address": "244 Elm St", "Additonal_Address": null, "City": "Somerville", "State": "MA", "Zip_Code": "02144", "Zip4": "2935", "County": "MIDDLESEX", "Store_Type": "Supermarket", "Latitude": 42.395161, "Longitude": -71.121773, "Incentive_Program": null, "Grantee_Name": null, "ObjectId": 122382 }, "geometry": { "type": "Point", "coordinates": [ -71.121773, 42.395161 ] } },
{ "type": "Feature", "properties": { "Record_ID": 1275286, "Store_Name": "Target 3222", "Store_Street_Address": "564 Massachusetts Ave", "Additonal_Address": null, "City": "Cambridge", "State": "MA", "Zip_Code": "02139", "Zip4": "    ", "County": "MIDDLESEX", "Store_Type": "Super Store", "Latitude": 42.364544, "Longitude": -71.102348, "Incentive_Program": null, "Grantee_Name": null, "ObjectId": 124840 }, "geometry": { "type": "Point", "coordinates": [ -71.102348, 42.364544 ] } },
{ "type": "Feature", "properties": { "Record_ID": 1171111, "Store_Name": "Wegmans 59", "Store_Street_Address": "53 3rd Ave", "Additonal_Address": null, "City": "Burlington", "State": "MA", "Zip_Code": "01803", "Zip4": "4418", "County": "MIDDLESEX", "Store_Type": "Supermarket", "Latitude": 42.487869, "Longitude": -71.225182, "Incentive_Program": null, "Grantee_Name": null, "ObjectId": 125104 }, "geometry": { "type": "Point", "coordinates": [ -71.225182, 42.487869 ] } },
{ "type": "Feature", "properties": { "Record_ID": 1171115, "Store_Name": "Market Basket 74", "Store_Street_Address": "275 Squire Rd", "Additonal_Address": null, "City": "Revere", "State": "MA", "Zip_Code": "02151", "Zip4": "4322", "County": "SUFFOLK", "Store_Type": "Super Store", "Latitude": 42.426373, "Longitude": -71.012749, "Incentive_Program": null, "Grantee_Name": null, "ObjectId": 125110 }, "geometry": { "type": "Point", "coordinates": [ -71.012749, 42.426373 ] } },
{ "type": "Feature", "properties": { "Record_ID": 1170927, "Store_Name": "Walmart Supercenter 3114", "Store_Street_Address": "770 Broadway", "Additonal_Address": null, "City": "Saugus", "State": "MA", "Zip_Code": "01906", "Zip4": "3202", "County": "ESSEX", "Store_Type": "Super Store", "Latitude": 42.470592, "Longitude": -71.02491, "Incentive_Program": null, "Grantee_Name": null, "ObjectId": 125212 }, "geometry": { "type": "Point", "coordinates": [ -71.02491, 42.470592 ] } },
{ "type": "Feature", "properties": { "Record_ID": 1279995, "Store_Name": "Sudbury Farms 208", "Store_Street_Address": "439 Boston Post Rd", "Additonal_Address": null, "City": "Sudbury", "State": "MA", "Zip_Code": "01776", "Zip4": "3056", "County": "MIDDLESEX", "Store_Type": "Supermarket", "Latitude": 42.360504, "Longitude": -71.423271, "Incentive_Program": null, "Grantee_Name": null, "ObjectId": 127511 }, "geometry": { "type": "Point", "coordinates": [ -71.423271, 42.360504 ] } },
{ "type": "Feature", "properties": { "Record_ID": 1314506, "Store_Name": "Target T3223", "Store_Street_Address": "4165 Washington St", "Additonal_Address": null, "City": "Roslindale", "State": "MA", "Zip_Code": "02131", "Zip4": "1718", "County": "SUFFOLK", "Store_Type": "Super Store", "Latitude": 42.288029, "Longitude": -71.126495, "Incentive_Program": null, "Grantee_Name": null, "ObjectId": 128175 }, "geometry": { "type": "Point", "coordinates": [ -71.126495, 42.288029 ] } },
{ "type": "Feature", "properties": { "Record_ID": 1174071, "Store_Name": "MARKET BASKET 79", "Store_Street_Address": "110 Market Place Dr", "Additonal_Address": null, "City": "Waltham", "State": "MA", "Zip_Code": "02451", "Zip4": "1099", "County": "MIDDLESEX", "Store_Type": "Super Store", "Latitude": 42.380348, "Longitude": -71.26339, "Incentive_Program": null, "Grantee_Name": null, "ObjectId": 129876 }, "geometry": { "type": "Point", "coordinates": [ -71.26339, 42.380348 ] } },
{ "type": "Feature", "properties": { "Record_ID": 1180958, "Store_Name": "Whole Foods Market 10513", "Store_Street_Address": "348 Harrison Ave", "Additonal_Address": null, "City": "Boston", "State": "MA", "Zip_Code": "02118", "Zip4": "2237", "County": "SUFFOLK", "Store_Type": "Super Store", "Latitude": 42.344982, "Longitude": -71.063698, "Incentive_Program": null, "Grantee_Name": null, "ObjectId": 133981 }, "geometry": { "type": "Point", "coordinates": [ -71.063698, 42.344982 ] } },
{ "type": "Feature", "properties": { "Record_ID": 1206244, "Store_Name": "Target Store 2822", "Store_Street_Address": "1341 Boylston St", "Additonal_Address": null, "City": "Boston", "State": "MA", "Zip_Code": "02215", "Zip4": "3909", "County": "SUFFOLK", "Store_Type": "Super Store", "Latitude": 42.344128, "Longitude": -71.099556, "Incentive_Program": null, "Grantee_Name": null, "ObjectId": 135484 }, "geometry": { "type": "Point", "coordinates": [ -71.099556, 42.344128 ] } },
{ "type": "Feature", "properties": { "Record_ID": 1186879, "Store_Name": "Target Store 2649", "Store_Street_Address": "221 University Ave", "Additonal_Address": null, "City": "Westwood", "State": "MA", "Zip_Code": "02090", "Zip4": "2333", "County": "NORFOLK", "Store_Type": "Super Store", "Latitude": 42.203369, "Longitude": -71.153694, "Incentive_Program": null, "Grantee_Name": null, "ObjectId": 138058 }, "geometry": { "type": "Point", "coordinates": [ -71.153694, 42.203369 ] } },
{ "type": "Feature", "properties": { "Record_ID": 1300522, "Store_Name": "Trader Joe's 561", "Store_Street_Address": "199 N Harvard St", "Additonal_Address": "Ste B", "City": "Allston", "State": "MA", "Zip_Code": "02134", "Zip4": "1171", "County": "SUFFOLK", "Store_Type": "Supermarket", "Latitude": 42.363026, "Longitude": -71.130005, "Incentive_Program": null, "Grantee_Name": null, "ObjectId": 142746 }, "geometry": { "type": "Point", "coordinates": [ -71.130005, 42.363026 ] } },
{ "type": "Feature", "properties": { "Record_ID": 1302429, "Store_Name": "Wegmans 134", "Store_Street_Address": "3850 Mystic Valley Parkway", "Additonal_Address": null, "City": "Medford", "State": "MA", "Zip_Code": "02155", "Zip4": "    ", "County": "MIDDLESEX", "Store_Type": "Supermarket", "Latitude": 42.405663, "Longitude": -71.09362, "Incentive_Program": null, "Grantee_Name": null, "ObjectId": 143619 }, "geometry": { "type": "Point", "coordinates": [ -71.09362, 42.405663 ] } },
{ "type": "Feature", "properties": { "Record_ID": 990352, "Store_Name": "Target 2570", "Store_Street_Address": "605 Boston Post Rd E", "Additonal_Address": null, "City": "Marlborough", "State": "MA", "Zip_Code": "01752", "Zip4": "3702", "County": "MIDDLESEX", "Store_Type": "Super Store", "Latitude": 42.349236, "Longitude": -71.506264, "Incentive_Program": null, "Grantee_Name": null, "ObjectId": 144541 }, "geometry": { "type": "Point", "coordinates": [ -71.506264, 42.349236 ] } },
{ "type": "Feature", "properties": { "Record_ID": 1304074, "Store_Name": "Stop & Shop 2418", "Store_Street_Address": "126 Medway Rd", "Additonal_Address": null, "City": "Milford", "State": "MA", "Zip_Code": "01757", "Zip4": "2915", "County": "WORCESTER", "Store_Type": "Supermarket", "Latitude": 42.14806, "Longitude": -71.488724, "Incentive_Program": null, "Grantee_Name": null, "ObjectId": 145568 }, "geometry": { "type": "Point", "coordinates": [ -71.488724, 42.14806 ] } },
{ "type": "Feature", "properties": { "Record_ID": 1252458, "Store_Name": "Target 3226", "Store_Street_Address": "860 Commonwealth Ave", "Additonal_Address": null, "City": "Boston", "State": "MA", "Zip_Code": "02215", "Zip4": "1205", "County": "SUFFOLK", "Store_Type": "Super Store", "Latitude": 42.350803, "Longitude": -71.114166, "Incentive_Program": null, "Grantee_Name": null, "ObjectId": 146649 }, "geometry": { "type": "Point", "coordinates": [ -71.114166, 42.350803 ] } },
{ "type": "Feature", "properties": { "Record_ID": 1378800, "Store_Name": "Star Market 3696", "Store_Street_Address": "90 Causeway St", "Additonal_Address": null, "City": "Boston", "State": "MA", "Zip_Code": "02114", "Zip4": "1302", "County": "SUFFOLK", "Store_Type": "Supermarket", "Latitude": 42.365337, "Longitude": -71.061699, "Incentive_Program": null, "Grantee_Name": null, "ObjectId": 149624 }, "geometry": { "type": "Point", "coordinates": [ -71.061699, 42.365337 ] } },
{ "type": "Feature", "properties": { "Record_ID": 1256886, "Store_Name": "Big Y Supermarkets 103", "Store_Street_Address": "10 Washington St", "Additonal_Address": null, "City": "Norwell", "State": "MA", "Zip_Code": "02061", "Zip4": "    ", "County": "PLYMOUTH", "Store_Type": "Super Store", "Latitude": 42.174412, "Longitude": -70.884483, "Incentive_Program": null, "Grantee_Name": null, "ObjectId": 150471 }, "geometry": { "type": "Point", "coordinates": [ -70.884483, 42.174412 ] } },
{ "type": "Feature", "properties": { "Record_ID": 1256887, "Store_Name": "Big Y Supermarkets 104", "Store_Street_Address": "7 Medway Rd", "Additonal_Address": null, "City": "Milford", "State": "MA", "Zip_Code": "01757", "Zip4": "2902", "County": "WORCESTER", "Store_Type": "Super Store", "Latitude": 42.15023, "Longitude": -71.502556, "Incentive_Program": null, "Grantee_Name": null, "ObjectId": 150474 }, "geometry": { "type": "Point", "coordinates": [ -71.502556, 42.15023 ] } },
{ "type": "Feature", "properties": { "Record_ID": 1352064, "Store_Name": "Lambert Bros Inc.", "Store_Street_Address": "777 Morrissey Blvd", "Additonal_Address": null, "City": "Dorchester", "State": "MA", "Zip_Code": "02122", "Zip4": "3331", "County": "SUFFOLK", "Store_Type": "Super Store", "Latitude": 42.294567, "Longitude": -71.048134, "Incentive_Program": null, "Grantee_Name": null, "ObjectId": 152198 }, "geometry": { "type": "Point", "coordinates": [ -71.048134, 42.294567 ] } },
{ "type": "Feature", "properties": { "Record_ID": 1426919, "Store_Name": "ALDI 73113", "Store_Street_Address": "321 Speen St", "Additonal_Address": null, "City": "Natick", "State": "MA", "Zip_Code": "01760", "Zip4": "1506", "County": "MIDDLESEX", "Store_Type": "Supermarket", "Latitude": 42.303932, "Longitude": -71.379501, "Incentive_Program": null, "Grantee_Name": null, "ObjectId": 152490 }, "geometry": { "type": "Point", "coordinates": [ -71.379501, 42.303932 ] } },
{ "type": "Feature", "properties": { "Record_ID": 1378883, "Store_Name": "Trader Joe's 566", "Store_Street_Address": "44 Thomson Pl", "Additonal_Address": null, "City": "Boston", "State": "MA", "Zip_Code": "02210", "Zip4": "1212", "County": "SUFFOLK", "Store_Type": "Supermarket", "Latitude": 42.351677, "Longitude": -71.047134, "Incentive_Program": null, "Grantee_Name": null, "ObjectId": 152512 }, "geometry": { "type": "Point", "coordinates": [ -71.047134, 42.351677 ] } },
{ "type": "Feature", "properties": { "Record_ID": 1389472, "Store_Name": "Apna Bazar", "Store_Street_Address": "989 Boston Providence Tpke", "Additonal_Address": null, "City": "Norwood", "State": "MA", "Zip_Code": "02062", "Zip4": "5001", "County": "NORFOLK", "Store_Type": "Supermarket", "Latitude": 42.1791, "Longitude": -71.190559, "Incentive_Program": null, "Grantee_Name": null, "ObjectId": 160534 }, "geometry": { "type": "Point", "coordinates": [ -71.190559, 42.1791 ] } },
{ "type": "Feature", "properties": { "Record_ID": 1329955, "Store_Name": "Target T3287", "Store_Street_Address": "467 Salem St", "Additonal_Address": null, "City": "Medford", "State": "MA", "Zip_Code": "02155", "Zip4": "3387", "County": "MIDDLESEX", "Store_Type": "Super Store", "Latitude": 42.423656, "Longitude": -71.090286, "Incentive_Program": null, "Grantee_Name": null, "ObjectId": 161136 }, "geometry": { "type": "Point", "coordinates": [ -71.090286, 42.423656 ] } },
{ "type": "Feature", "properties": { "Record_ID": 1603534, "Store_Name": "Pricerite Marketplace", "Store_Street_Address": "666 Washington St", "Additonal_Address": null, "City": "Stoughton", "State": "MA", "Zip_Code": "02072", "Zip4": "4212", "County": "NORFOLK", "Store_Type": "Super Store", "Latitude": 42.127728, "Longitude": -71.100815, "Incentive_Program": null, "Grantee_Name": null, "ObjectId": 163148 }, "geometry": { "type": "Point", "coordinates": [ -71.100815, 42.127728 ] } },
{ "type": "Feature", "properties": { "Record_ID": 1381509, "Store_Name": "Cambridge Brothers Marketplace 404", "Store_Street_Address": "1 Broadway", "Additonal_Address": null, "City": "Cambridge", "State": "MA", "Zip_Code": "02142", "Zip4": "1100", "County": "MIDDLESEX", "Store_Type": "Supermarket", "Latitude": 42.362759, "Longitude": -71.083328, "Incentive_Program": null, "Grantee_Name": null, "ObjectId": 163704 }, "geometry": { "type": "Point", "coordinates": [ -71.083328, 42.362759 ] } },
{ "type": "Feature", "properties": { "Record_ID": 1392428, "Store_Name": "99 Ranch Market 605", "Store_Street_Address": "475 Hancock St", "Additonal_Address": null, "City": "Quincy", "State": "MA", "Zip_Code": "02171", "Zip4": "2414", "County": "NORFOLK", "Store_Type": "Super Store", "Latitude": 42.270435, "Longitude": -71.023529, "Incentive_Program": null, "Grantee_Name": null, "ObjectId": 164383 }, "geometry": { "type": "Point", "coordinates": [ -71.023529, 42.270435 ] } },
{ "type": "Feature", "properties": { "Record_ID": 1435061, "Store_Name": "Price Rite 377", "Store_Street_Address": "333 Martin Luther King Blvd", "Additonal_Address": null, "City": "Roxbury", "State": "MA", "Zip_Code": "02119", "Zip4": "1809", "County": "SUFFOLK", "Store_Type": "Super Store", "Latitude": 42.317799, "Longitude": -71.083008, "Incentive_Program": null, "Grantee_Name": null, "ObjectId": 168182 }, "geometry": { "type": "Point", "coordinates": [ -71.083008, 42.317799 ] } },
{ "type": "Feature", "properties": { "Record_ID": 1341361, "Store_Name": "Target T3304", "Store_Street_Address": "822 Somerville Ave", "Additonal_Address": null, "City": "Cambridge", "State": "MA", "Zip_Code": "02140", "Zip4": "    ", "County": "MIDDLESEX", "Store_Type": "Super Store", "Latitude": 42.38805, "Longitude": -71.118378, "Incentive_Program": null, "Grantee_Name": null, "ObjectId": 169198 }, "geometry": { "type": "Point", "coordinates": [ -71.118378, 42.38805 ] } },
{ "type": "Feature", "properties": { "Record_ID": 1341363, "Store_Name": "Target T3305", "Store_Street_Address": "34 Cambridge St", "Additonal_Address": "Ste 145", "City": "Burlington", "State": "MA", "Zip_Code": "01803", "Zip4": "    ", "County": "MIDDLESEX", "Store_Type": "Super Store", "Latitude": 42.483891, "Longitude": -71.189079, "Incentive_Program": null, "Grantee_Name": null, "ObjectId": 169200 }, "geometry": { "type": "Point", "coordinates": [ -71.189079, 42.483891 ] } },
{ "type": "Feature", "properties": { "Record_ID": 1424157, "Store_Name": "Target Store T3363", "Store_Street_Address": "500 Geneva Ave", "Additonal_Address": null, "City": "Dorchester", "State": "MA", "Zip_Code": "02122", "Zip4": "1321", "County": "SUFFOLK", "Store_Type": "Super Store", "Latitude": 42.29879, "Longitude": -71.062958, "Incentive_Program": null, "Grantee_Name": null, "ObjectId": 175968 }, "geometry": { "type": "Point", "coordinates": [ -71.062958, 42.29879 ] } },
{ "type": "Feature", "properties": { "Record_ID": 1424159, "Store_Name": "Target Store T3368", "Store_Street_Address": "100 Cambridge St", "Additonal_Address": "Ste 2", "City": "Boston", "State": "MA", "Zip_Code": "02114", "Zip4": "    ", "County": "SUFFOLK", "Store_Type": "Super Store", "Latitude": 42.360592, "Longitude": -71.062111, "Incentive_Program": null, "Grantee_Name": null, "ObjectId": 175984 }, "geometry": { "type": "Point", "coordinates": [ -71.062111, 42.360592 ] } },
{ "type": "Feature", "properties": { "Record_ID": 1512006, "Store_Name": "Big Y World Class Market 126", "Store_Street_Address": "434 Walpole St", "Additonal_Address": null, "City": "Norwood", "State": "MA", "Zip_Code": "02062", "Zip4": "3093", "County": "NORFOLK", "Store_Type": "Super Store", "Latitude": 42.178078, "Longitude": -71.219543, "Incentive_Program": null, "Grantee_Name": null, "ObjectId": 176128 }, "geometry": { "type": "Point", "coordinates": [ -71.219543, 42.178078 ] } },
{ "type": "Feature", "properties": { "Record_ID": 1466209, "Store_Name": "Stop And Compare", "Store_Street_Address": "43 State St", "Additonal_Address": null, "City": "Lynn", "State": "MA", "Zip_Code": "01901", "Zip4": "1504", "County": "ESSEX", "Store_Type": "Supermarket", "Latitude": 42.462067, "Longitude": -70.950684, "Incentive_Program": null, "Grantee_Name": null, "ObjectId": 176735 }, "geometry": { "type": "Point", "coordinates": [ -70.950684, 42.462067 ] } },
{ "type": "Feature", "properties": { "Record_ID": 1480148, "Store_Name": "ALDI 73115", "Store_Street_Address": "70 Providence Hwy", "Additonal_Address": null, "City": "East Walpole", "State": "MA", "Zip_Code": "02032", "Zip4": "1511", "County": "NORFOLK", "Store_Type": "Supermarket", "Latitude": 42.156704, "Longitude": -71.202263, "Incentive_Program": null, "Grantee_Name": null, "ObjectId": 181688 }, "geometry": { "type": "Point", "coordinates": [ -71.202263, 42.156704 ] } },
{ "type": "Feature", "properties": { "Record_ID": 1439165, "Store_Name": "Roche Bros 122", "Store_Street_Address": "96 Arsenal Yards Blvd", "Additonal_Address": null, "City": "Watertown", "State": "MA", "Zip_Code": "02472", "Zip4": "5037", "County": "MIDDLESEX", "Store_Type": "Supermarket", "Latitude": 42.361534, "Longitude": -71.157562, "Incentive_Program": null, "Grantee_Name": null, "ObjectId": 182164 }, "geometry": { "type": "Point", "coordinates": [ -71.157562, 42.361534 ] } },
{ "type": "Feature", "properties": { "Record_ID": 1426414, "Store_Name": "Market Basket 87", "Store_Street_Address": "6 Digital Way", "Additonal_Address": null, "City": "Maynard", "State": "MA", "Zip_Code": "01754", "Zip4": "2268", "County": "MIDDLESEX", "Store_Type": "Super Store", "Latitude": 42.417439, "Longitude": -71.450417, "Incentive_Program": null, "Grantee_Name": null, "ObjectId": 182809 }, "geometry": { "type": "Point", "coordinates": [ -71.450417, 42.417439 ] } },
{ "type": "Feature", "properties": { "Record_ID": 1594865, "Store_Name": "TRADER JOE'S BOSTON 500", "Store_Street_Address": "500 Boylston St", "Additonal_Address": null, "City": "Boston", "State": "MA", "Zip_Code": "02116", "Zip4": "3740", "County": "SUFFOLK", "Store_Type": "Supermarket", "Latitude": 42.350548, "Longitude": -71.073898, "Incentive_Program": null, "Grantee_Name": null, "ObjectId": 183829 }, "geometry": { "type": "Point", "coordinates": [ -71.073898, 42.350548 ] } },
{ "type": "Feature", "properties": { "Record_ID": 1649950, "Store_Name": "Stop & Shop 418", "Store_Street_Address": "1415 Boston Providence Tpke", "Additonal_Address": "Ste 1", "City": "Norwood", "State": "MA", "Zip_Code": "02062", "Zip4": "8002", "County": "NORFOLK", "Store_Type": "Supermarket", "Latitude": 42.163845, "Longitude": -71.201653, "Incentive_Program": null, "Grantee_Name": null, "ObjectId": 185650 }, "geometry": { "type": "Point", "coordinates": [ -71.201653, 42.163845 ] } },
{ "type": "Feature", "properties": { "Record_ID": 1493424, "Store_Name": "Market Basket 91", "Store_Street_Address": "1775 Washington St", "Additonal_Address": "Ste 300", "City": "Hanover", "State": "MA", "Zip_Code": "02339", "Zip4": "1701", "County": "PLYMOUTH", "Store_Type": "Super Store", "Latitude": 42.147751, "Longitude": -70.842667, "Incentive_Program": null, "Grantee_Name": null, "ObjectId": 187895 }, "geometry": { "type": "Point", "coordinates": [ -70.842667, 42.147751 ] } },
{ "type": "Feature", "properties": { "Record_ID": 1440399, "Store_Name": "Price Rite 375", "Store_Street_Address": "500 Geneva Ave", "Additonal_Address": null, "City": "Dorchester", "State": "MA", "Zip_Code": "02122", "Zip4": "1321", "County": "SUFFOLK", "Store_Type": "Super Store", "Latitude": 42.298798, "Longitude": -71.062958, "Incentive_Program": null, "Grantee_Name": null, "ObjectId": 188855 }, "geometry": { "type": "Point", "coordinates": [ -71.062958, 42.298798 ] } },
{ "type": "Feature", "properties": { "Record_ID": 1601347, "Store_Name": "MOM's Organic Market 25", "Store_Street_Address": "1314 Worcester St", "Additonal_Address": null, "City": "Natick", "State": "MA", "Zip_Code": "01760", "Zip4": "1501", "County": "MIDDLESEX", "Store_Type": "Super Store", "Latitude": 42.298965, "Longitude": -71.386147, "Incentive_Program": null, "Grantee_Name": null, "ObjectId": 189559 }, "geometry": { "type": "Point", "coordinates": [ -71.386147, 42.298965 ] } },
{ "type": "Feature", "properties": { "Record_ID": 1494063, "Store_Name": "Fruit Center Inc", "Store_Street_Address": "10 Bassett St", "Additonal_Address": null, "City": "Milton", "State": "MA", "Zip_Code": "02186", "Zip4": "5507", "County": "NORFOLK", "Store_Type": "Supermarket", "Latitude": 42.259903, "Longitude": -71.040825, "Incentive_Program": null, "Grantee_Name": null, "ObjectId": 190484 }, "geometry": { "type": "Point", "coordinates": [ -71.040825, 42.259903 ] } },
{ "type": "Feature", "properties": { "Record_ID": 1502976, "Store_Name": "H Mart Quincy", "Store_Street_Address": "101 Falls Blvd", "Additonal_Address": null, "City": "Quincy", "State": "MA", "Zip_Code": "02169", "Zip4": "8126", "County": "NORFOLK", "Store_Type": "Super Store", "Latitude": 42.238064, "Longitude": -70.984001, "Incentive_Program": null, "Grantee_Name": null, "ObjectId": 194176 }, "geometry": { "type": "Point", "coordinates": [ -70.984001, 42.238064 ] } },
{ "type": "Feature", "properties": { "Record_ID": 1544462, "Store_Name": "H MART Cambridge", "Store_Street_Address": "1026 Beacon St", "Additonal_Address": null, "City": "Brookline", "State": "MA", "Zip_Code": "02446", "Zip4": "4001", "County": "NORFOLK", "Store_Type": "Super Store", "Latitude": 42.34618, "Longitude": -71.108276, "Incentive_Program": null, "Grantee_Name": null, "ObjectId": 200019 }, "geometry": { "type": "Point", "coordinates": [ -71.108276, 42.34618 ] } },
{ "type": "Feature", "properties": { "Record_ID": 1490231, "Store_Name": "Fair Price Market", "Store_Street_Address": "1470 N Shore Rd", "Additonal_Address": null, "City": "Revere", "State": "MA", "Zip_Code": "02151", "Zip4": "2670", "County": "SUFFOLK", "Store_Type": "Supermarket", "Latitude": 42.409138, "Longitude": -70.993034, "Incentive_Program": null, "Grantee_Name": null, "ObjectId": 204559 }, "geometry": { "type": "Point", "coordinates": [ -70.993034, 42.409138 ] } },
{ "type": "Feature", "properties": { "Record_ID": 1308621, "Store_Name": "Eam Market Inc Dba The Village Market", "Store_Street_Address": "505 Nantasket Ave", "Additonal_Address": null, "City": "Hull", "State": "MA", "Zip_Code": "02045", "Zip4": "2535", "County": "PLYMOUTH", "Store_Type": "Super Store", "Latitude": 42.282196, "Longitude": -70.873299, "Incentive_Program": null, "Grantee_Name": null, "ObjectId": 207104 }, "geometry": { "type": "Point", "coordinates": [ -70.873299, 42.282196 ] } },
{ "type": "Feature", "properties": { "Record_ID": 987509, "Store_Name": "America's Food Market", "Store_Street_Address": "576 Washington St", "Additonal_Address": null, "City": "Dorchester Center", "State": "MA", "Zip_Code": "02124", "Zip4": "2041", "County": "SUFFOLK", "Store_Type": "Super Store", "Latitude": 42.291527, "Longitude": -71.071655, "Incentive_Program": null, "Grantee_Name": null, "ObjectId": 207729 }, "geometry": { "type": "Point", "coordinates": [ -71.071655, 42.291527 ] } },
{ "type": "Feature", "properties": { "Record_ID": 1474861, "Store_Name": "Target Store T3325", "Store_Street_Address": "289 Hancock St", "Additonal_Address": null, "City": "Quincy", "State": "MA", "Zip_Code": "02171", "Zip4": "2229", "County": "NORFOLK", "Store_Type": "Super Store", "Latitude": 42.275787, "Longitude": -71.029594, "Incentive_Program": null, "Grantee_Name": null, "ObjectId": 207982 }, "geometry": { "type": "Point", "coordinates": [ -71.029594, 42.275787 ] } },
{ "type": "Feature", "properties": { "Record_ID": 1001657, "Store_Name": "El Valle De La Sultana Market", "Store_Street_Address": "716 Broadway", "Additonal_Address": null, "City": "Everett", "State": "MA", "Zip_Code": "02149", "Zip4": "2917", "County": "MIDDLESEX", "Store_Type": "Supermarket", "Latitude": 42.414906, "Longitude": -71.0485, "Incentive_Program": null, "Grantee_Name": null, "ObjectId": 214554 }, "geometry": { "type": "Point", "coordinates": [ -71.0485, 42.414906 ] } },
{ "type": "Feature", "properties": { "Record_ID": 1281209, "Store_Name": "Ming's Supermarket Inc.", "Store_Street_Address": "1102 Washington St", "Additonal_Address": null, "City": "Boston", "State": "MA", "Zip_Code": "02118", "Zip4": "2219", "County": "SUFFOLK", "Store_Type": "Super Store", "Latitude": 42.344288, "Longitude": -71.065308, "Incentive_Program": null, "Grantee_Name": null, "ObjectId": 214957 }, "geometry": { "type": "Point", "coordinates": [ -71.065308, 42.344288 ] } },
{ "type": "Feature", "properties": { "Record_ID": 944974, "Store_Name": "Hong Kong Supermarket of Allston LLC 1", "Store_Street_Address": "1 Brighton Ave.", "Additonal_Address": null, "City": "Allston", "State": "MA", "Zip_Code": "02134", "Zip4": "    ", "County": "SUFFOLK", "Store_Type": "Super Store", "Latitude": 42.352219, "Longitude": -71.125381, "Incentive_Program": null, "Grantee_Name": null, "ObjectId": 217271 }, "geometry": { "type": "Point", "coordinates": [ -71.125381, 42.352219 ] } },
{ "type": "Feature", "properties": { "Record_ID": 883243, "Store_Name": "Brothers Supermarket Ii Inc", "Store_Street_Address": "776 Dudley St", "Additonal_Address": null, "City": "Dorchester", "State": "MA", "Zip_Code": "02125", "Zip4": "2276", "County": "SUFFOLK", "Store_Type": "Super Store", "Latitude": 42.317516, "Longitude": -71.065689, "Incentive_Program": null, "Grantee_Name": null, "ObjectId": 217587 }, "geometry": { "type": "Point", "coordinates": [ -71.065689, 42.317516 ] } },
{ "type": "Feature", "properties": { "Record_ID": 1106503, "Store_Name": "Lio Meat Corp/America's Food Basket", "Store_Street_Address": "926 Cummins Hwy", "Additonal_Address": null, "City": "Mattapan", "State": "MA", "Zip_Code": "02126", "Zip4": "2095", "County": "SUFFOLK", "Store_Type": "Super Store", "Latitude": 42.268345, "Longitude": -71.095192, "Incentive_Program": null, "Grantee_Name": null, "ObjectId": 218947 }, "geometry": { "type": "Point", "coordinates": [ -71.095192, 42.268345 ] } },
{ "type": "Feature", "properties": { "Record_ID": 793436, "Store_Name": "AMERICA'S FOOD BASKET", "Store_Street_Address": "942 Hyde Park Ave", "Additonal_Address": null, "City": "Hyde Park", "State": "MA", "Zip_Code": "02136", "Zip4": "3269", "County": "SUFFOLK", "Store_Type": "Super Store", "Latitude": 42.267616, "Longitude": -71.120888, "Incentive_Program": null, "Grantee_Name": null, "ObjectId": 220089 }, "geometry": { "type": "Point", "coordinates": [ -71.120888, 42.267616 ] } },
{ "type": "Feature", "properties": { "Record_ID": 961100, "Store_Name": "J Pace & Sons Inc", "Store_Street_Address": "190 Main St", "Additonal_Address": null, "City": "Saugus", "State": "MA", "Zip_Code": "01906", "Zip4": "4508", "County": "ESSEX", "Store_Type": "Super Store", "Latitude": 42.46719, "Longitude": -71.027344, "Incentive_Program": null, "Grantee_Name": null, "ObjectId": 220579 }, "geometry": { "type": "Point", "coordinates": [ -71.027344, 42.46719 ] } },
{ "type": "Feature", "properties": { "Record_ID": 875505, "Store_Name": "C Mart", "Store_Street_Address": "50 Herald St", "Additonal_Address": null, "City": "Boston", "State": "MA", "Zip_Code": "02118", "Zip4": "2233", "County": "SUFFOLK", "Store_Type": "Super Store", "Latitude": 42.346661, "Longitude": -71.064583, "Incentive_Program": null, "Grantee_Name": null, "ObjectId": 221706 }, "geometry": { "type": "Point", "coordinates": [ -71.064583, 42.346661 ] } },
{ "type": "Feature", "properties": { "Record_ID": 1121928, "Store_Name": "Jia Ho Supermarket", "Store_Street_Address": "692 Washington St", "Additonal_Address": null, "City": "Boston", "State": "MA", "Zip_Code": "02111", "Zip4": "1614", "County": "SUFFOLK", "Store_Type": "Super Store", "Latitude": 42.351307, "Longitude": -71.062836, "Incentive_Program": null, "Grantee_Name": null, "ObjectId": 221908 }, "geometry": { "type": "Point", "coordinates": [ -71.062836, 42.351307 ] } },
{ "type": "Feature", "properties": { "Record_ID": 1070206, "Store_Name": "Foodies South Boston LLC", "Store_Street_Address": "230 W Broadway", "Additonal_Address": null, "City": "Boston", "State": "MA", "Zip_Code": "02127", "Zip4": "1996", "County": "SUFFOLK", "Store_Type": "Super Store", "Latitude": 42.339653, "Longitude": -71.052116, "Incentive_Program": null, "Grantee_Name": null, "ObjectId": 222414 }, "geometry": { "type": "Point", "coordinates": [ -71.052116, 42.339653 ] } },
{ "type": "Feature", "properties": { "Record_ID": 944982, "Store_Name": "Hong Kong Supermarket of Malden LLC 3", "Store_Street_Address": "188 Commercial St", "Additonal_Address": null, "City": "Malden", "State": "MA", "Zip_Code": "02148", "Zip4": "6709", "County": "MIDDLESEX", "Store_Type": "Super Store", "Latitude": 42.420856, "Longitude": -71.075409, "Incentive_Program": null, "Grantee_Name": null, "ObjectId": 225653 }, "geometry": { "type": "Point", "coordinates": [ -71.075409, 42.420856 ] } },
{ "type": "Feature", "properties": { "Record_ID": 1128069, "Store_Name": "Good Fortune Supermarket Of Quincy Inc", "Store_Street_Address": "226 Quincy Ave", "Additonal_Address": null, "City": "Quincy", "State": "MA", "Zip_Code": "02169", "Zip4": "6741", "County": "NORFOLK", "Store_Type": "Super Store", "Latitude": 42.241276, "Longitude": -70.990829, "Incentive_Program": null, "Grantee_Name": null, "ObjectId": 226279 }, "geometry": { "type": "Point", "coordinates": [ -70.990829, 42.241276 ] } },
{ "type": "Feature", "properties": { "Record_ID": 1168571, "Store_Name": "Vitoria Meat Market", "Store_Street_Address": "475 Ferry St", "Additonal_Address": null, "City": "Everett", "State": "MA", "Zip_Code": "02149", "Zip4": "5661", "County": "MIDDLESEX", "Store_Type": "Supermarket", "Latitude": 42.41856, "Longitude": -71.051567, "Incentive_Program": null, "Grantee_Name": null, "ObjectId": 226733 }, "geometry": { "type": "Point", "coordinates": [ -71.051567, 42.41856 ] } },
{ "type": "Feature", "properties": { "Record_ID": 1102684, "Store_Name": "Sayar Food Market", "Store_Street_Address": "3 Everett St", "Additonal_Address": "Unit 3E", "City": "Revere", "State": "MA", "Zip_Code": "02151", "Zip4": "5934", "County": "SUFFOLK", "Store_Type": "Super Store", "Latitude": 42.409977, "Longitude": -71.001007, "Incentive_Program": null, "Grantee_Name": null, "ObjectId": 229773 }, "geometry": { "type": "Point", "coordinates": [ -71.001007, 42.409977 ] } },
{ "type": "Feature", "properties": { "Record_ID": 1089206, "Store_Name": "Phu Cuong Market", "Store_Street_Address": "1188 Dorchester Ave", "Additonal_Address": null, "City": "Dorchester", "State": "MA", "Zip_Code": "02125", "Zip4": "1503", "County": "SUFFOLK", "Store_Type": "Super Store", "Latitude": 42.310196, "Longitude": -71.057808, "Incentive_Program": null, "Grantee_Name": null, "ObjectId": 230403 }, "geometry": { "type": "Point", "coordinates": [ -71.057808, 42.310196 ] } },
{ "type": "Feature", "properties": { "Record_ID": 1534145, "Store_Name": "MOM's Organic Market 24", "Store_Street_Address": "34 Cambridge St", "Additonal_Address": null, "City": "Burlington", "State": "MA", "Zip_Code": "01803", "Zip4": "4611", "County": "MIDDLESEX", "Store_Type": "Super Store", "Latitude": 42.484688, "Longitude": -71.187202, "Incentive_Program": null, "Grantee_Name": null, "ObjectId": 233048 }, "geometry": { "type": "Point", "coordinates": [ -71.187202, 42.484688 ] } },
{ "type": "Feature", "properties": { "Record_ID": 1301842, "Store_Name": "Giraffe Meat Corp./America's Food Basket", "Store_Street_Address": "300 N Main St", "Additonal_Address": null, "City": "Randolph", "State": "MA", "Zip_Code": "02368", "Zip4": "4102", "County": "NORFOLK", "Store_Type": "Super Store", "Latitude": 42.167488, "Longitude": -71.044533, "Incentive_Program": null, "Grantee_Name": null, "ObjectId": 236333 }, "geometry": { "type": "Point", "coordinates": [ -71.044533, 42.167488 ] } },
{ "type": "Feature", "properties": { "Record_ID": 856963, "Store_Name": "A.J. Seabra Supermarkets XV Inc.", "Store_Street_Address": "208 Waverly St", "Additonal_Address": null, "City": "Framingham", "State": "MA", "Zip_Code": "01702", "Zip4": "7133", "County": "MIDDLESEX", "Store_Type": "Super Store", "Latitude": 42.278503, "Longitude": -71.408569, "Incentive_Program": null, "Grantee_Name": null, "ObjectId": 239917 }, "geometry": { "type": "Point", "coordinates": [ -71.408569, 42.278503 ] } },
{ "type": "Feature", "properties": { "Record_ID": 1561676, "Store_Name": "Cmart Quincy Inc.", "Store_Street_Address": "28 Hayward St", "Additonal_Address": null, "City": "Quincy", "State": "MA", "Zip_Code": "02171", "Zip4": "2416", "County": "NORFOLK", "Store_Type": "Super Store", "Latitude": 42.271641, "Longitude": -71.024353, "Incentive_Program": null, "Grantee_Name": null, "ObjectId": 240462 }, "geometry": { "type": "Point", "coordinates": [ -71.024353, 42.271641 ] } },
{ "type": "Feature", "properties": { "Record_ID": 1173391, "Store_Name": "99 Asian Supermarket Inc", "Store_Street_Address": "60 Broadway", "Additonal_Address": null, "City": "Malden", "State": "MA", "Zip_Code": "02148", "Zip4": "6002", "County": "MIDDLESEX", "Store_Type": "Super Store", "Latitude": 42.42556, "Longitude": -71.042015, "Incentive_Program": null, "Grantee_Name": null, "ObjectId": 241097 }, "geometry": { "type": "Point", "coordinates": [ -71.042015, 42.42556 ] } },
{ "type": "Feature", "properties": { "Record_ID": 990171, "Store_Name": "Wilson Farms Inc.", "Store_Street_Address": "10 Pleasant St", "Additonal_Address": null, "City": "Lexington", "State": "MA", "Zip_Code": "02421", "Zip4": "6042", "County": "MIDDLESEX", "Store_Type": "Super Store", "Latitude": 42.427589, "Longitude": -71.206993, "Incentive_Program": null, "Grantee_Name": null, "ObjectId": 241361 }, "geometry": { "type": "Point", "coordinates": [ -71.206993, 42.427589 ] } },
{ "type": "Feature", "properties": { "Record_ID": 1564956, "Store_Name": "C-mart", "Store_Street_Address": "50 Herald St", "Additonal_Address": null, "City": "Boston", "State": "MA", "Zip_Code": "02118", "Zip4": "2233", "County": "SUFFOLK", "Store_Type": "Super Store", "Latitude": 42.346458, "Longitude": -71.064995, "Incentive_Program": null, "Grantee_Name": null, "ObjectId": 243327 }, "geometry": { "type": "Point", "coordinates": [ -71.064995, 42.346458 ] } },
{ "type": "Feature", "properties": { "Record_ID": 1608001, "Store_Name": "Mineirao Market II 7813013900", "Store_Street_Address": "841 Eastern Ave", "Additonal_Address": null, "City": "Malden", "State": "MA", "Zip_Code": "02148", "Zip4": "5925", "County": "MIDDLESEX", "Store_Type": "Supermarket", "Latitude": 42.42968, "Longitude": -71.046059, "Incentive_Program": null, "Grantee_Name": null, "ObjectId": 252625 }, "geometry": { "type": "Point", "coordinates": [ -71.046059, 42.42968 ] } },
{ "type": "Feature", "properties": { "Record_ID": 1619687, "Store_Name": "TRADER JOE'S MILFORD 582", "Store_Street_Address": "220 Fortune Blvd", "Additonal_Address": null, "City": "Milford", "State": "MA", "Zip_Code": "01757", "Zip4": "1743", "County": "WORCESTER", "Store_Type": "Supermarket", "Latitude": 42.16074, "Longitude": -71.501869, "Incentive_Program": null, "Grantee_Name": null, "ObjectId": 255713 }, "geometry": { "type": "Point", "coordinates": [ -71.501869, 42.16074 ] } },
{ "type": "Feature", "properties": { "Record_ID": 1653541, "Store_Name": "Star Market 163", "Store_Street_Address": "49 White St", "Additonal_Address": null, "City": "Cambridge", "State": "MA", "Zip_Code": "02140", "Zip4": "1435", "County": "MIDDLESEX", "Store_Type": "Supermarket", "Latitude": 42.38987, "Longitude": -71.118584, "Incentive_Program": null, "Grantee_Name": null, "ObjectId": 255889 }, "geometry": { "type": "Point", "coordinates": [ -71.118584, 42.38987 ] } },
{ "type": "Feature", "properties": { "Record_ID": 1623676, "Store_Name": "The Fresh Market 251", "Store_Street_Address": "84 Worcester Rd", "Additonal_Address": null, "City": "Framingham", "State": "MA", "Zip_Code": "01702", "Zip4": "5308", "County": "MIDDLESEX", "Store_Type": "Supermarket", "Latitude": 42.297462, "Longitude": -71.396027, "Incentive_Program": null, "Grantee_Name": null, "ObjectId": 256118 }, "geometry": { "type": "Point", "coordinates": [ -71.396027, 42.297462 ] } },
{ "type": "Feature", "properties": { "Record_ID": 1630635, "Store_Name": "H Mart Somerville LLC", "Store_Street_Address": "240 Elm St", "Additonal_Address": "Unit 110", "City": "Somerville", "State": "MA", "Zip_Code": "02144", "Zip4": "2935", "County": "MIDDLESEX", "Store_Type": "Super Store", "Latitude": 42.39497, "Longitude": -71.122078, "Incentive_Program": null, "Grantee_Name": null, "ObjectId": 259723 }, "geometry": { "type": "Point", "coordinates": [ -71.122078, 42.39497 ] } },
{ "type": "Feature", "properties": { "Record_ID": 1649946, "Store_Name": "Stop & Shop 2489", "Store_Street_Address": "305 Guest St", "Additonal_Address": null, "City": "Allston", "State": "MA", "Zip_Code": "02134", "Zip4": "2172", "County": "SUFFOLK", "Store_Type": "Supermarket", "Latitude": 42.356663, "Longitude": -71.142929, "Incentive_Program": null, "Grantee_Name": null, "ObjectId": 261169 }, "geometry": { "type": "Point", "coordinates": [ -71.142929, 42.356663 ] } },
{ "type": "Feature", "properties": { "Record_ID": 1649889, "Store_Name": "Stop & Shop 2411", "Store_Street_Address": "105 Alewife Brook Pkwy", "Additonal_Address": null, "City": "Somerville", "State": "MA", "Zip_Code": "02144", "Zip4": "1451", "County": "MIDDLESEX", "Store_Type": "Supermarket", "Latitude": 42.406746, "Longitude": -71.132271, "Incentive_Program": null, "Grantee_Name": null, "ObjectId": 261175 }, "geometry": { "type": "Point", "coordinates": [ -71.132271, 42.406746 ] } },
{ "type": "Feature", "properties": { "Record_ID": 1649850, "Store_Name": "Stop & Shop 416", "Store_Street_Address": "160 Providence Hwy", "Additonal_Address": "Rte 1", "City": "Dedham", "State": "MA", "Zip_Code": "02026", "Zip4": "    ", "County": "NORFOLK", "Store_Type": "Supermarket", "Latitude": 42.258095, "Longitude": -71.167717, "Incentive_Program": null, "Grantee_Name": null, "ObjectId": 261274 }, "geometry": { "type": "Point", "coordinates": [ -71.167717, 42.258095 ] } },
{ "type": "Feature", "properties": { "Record_ID": 1649997, "Store_Name": "Stop & Shop 8", "Store_Street_Address": "19 Temple St", "Additonal_Address": null, "City": "Framingham", "State": "MA", "Zip_Code": "01702", "Zip4": "2402", "County": "MIDDLESEX", "Store_Type": "Supermarket", "Latitude": 42.297638, "Longitude": -71.447906, "Incentive_Program": null, "Grantee_Name": null, "ObjectId": 261437 }, "geometry": { "type": "Point", "coordinates": [ -71.447906, 42.297638 ] } },
{ "type": "Feature", "properties": { "Record_ID": 1649853, "Store_Name": "Stop & Shop 433", "Store_Street_Address": "760 Fellsway", "Additonal_Address": null, "City": "Medford", "State": "MA", "Zip_Code": "02155", "Zip4": "4926", "County": "MIDDLESEX", "Store_Type": "Supermarket", "Latitude": 42.408318, "Longitude": -71.086212, "Incentive_Program": null, "Grantee_Name": null, "ObjectId": 261487 }, "geometry": { "type": "Point", "coordinates": [ -71.086212, 42.408318 ] } },
{ "type": "Feature", "properties": { "Record_ID": 1649966, "Store_Name": "Stop & Shop 39", "Store_Street_Address": "259 Main St", "Additonal_Address": null, "City": "Stoneham", "State": "MA", "Zip_Code": "02180", "Zip4": "2054", "County": "MIDDLESEX", "Store_Type": "Supermarket", "Latitude": 42.484772, "Longitude": -71.10157, "Incentive_Program": null, "Grantee_Name": null, "ObjectId": 261493 }, "geometry": { "type": "Point", "coordinates": [ -71.10157, 42.484772 ] } },
{ "type": "Feature", "properties": { "Record_ID": 1649845, "Store_Name": "Stop & Shop 429", "Store_Street_Address": "1100 Massachusetts Ave", "Additonal_Address": null, "City": "Dorchester", "State": "MA", "Zip_Code": "02125", "Zip4": "1606", "County": "SUFFOLK", "Store_Type": "Supermarket", "Latitude": 42.326466, "Longitude": -71.065498, "Incentive_Program": null, "Grantee_Name": null, "ObjectId": 261505 }, "geometry": { "type": "Point", "coordinates": [ -71.065498, 42.326466 ] } },
{ "type": "Feature", "properties": { "Record_ID": 1649887, "Store_Name": "Stop & Shop 413", "Store_Street_Address": "1025 Truman Hwy", "Additonal_Address": null, "City": "Hyde Park", "State": "MA", "Zip_Code": "02136", "Zip4": "3326", "County": "SUFFOLK", "Store_Type": "Supermarket", "Latitude": 42.242477, "Longitude": -71.127335, "Incentive_Program": null, "Grantee_Name": null, "ObjectId": 261511 }, "geometry": { "type": "Point", "coordinates": [ -71.127335, 42.242477 ] } },
{ "type": "Feature", "properties": { "Record_ID": 1649898, "Store_Name": "Stop & Shop 478", "Store_Street_Address": "316 Grove St", "Additonal_Address": null, "City": "Braintree", "State": "MA", "Zip_Code": "02184", "Zip4": "7224", "County": "NORFOLK", "Store_Type": "Supermarket", "Latitude": 42.190845, "Longitude": -70.986534, "Incentive_Program": null, "Grantee_Name": null, "ObjectId": 261780 }, "geometry": { "type": "Point", "coordinates": [ -70.986534, 42.190845 ] } },
{ "type": "Feature", "properties": { "Record_ID": 1650002, "Store_Name": "Stop & Shop 498", "Store_Street_Address": "779 McGrath Hwy", "Additonal_Address": null, "City": "Somerville", "State": "MA", "Zip_Code": "02145", "Zip4": "2122", "County": "MIDDLESEX", "Store_Type": "Supermarket", "Latitude": 42.391567, "Longitude": -71.085663, "Incentive_Program": null, "Grantee_Name": null, "ObjectId": 261870 }, "geometry": { "type": "Point", "coordinates": [ -71.085663, 42.391567 ] } },
{ "type": "Feature", "properties": { "Record_ID": 1649953, "Store_Name": "Stop & Shop 62", "Store_Street_Address": "99 Charles St", "Additonal_Address": null, "City": "Malden", "State": "MA", "Zip_Code": "02148", "Zip4": "6700", "County": "MIDDLESEX", "Store_Type": "Supermarket", "Latitude": 42.42432, "Longitude": -71.071472, "Incentive_Program": null, "Grantee_Name": null, "ObjectId": 261908 }, "geometry": { "type": "Point", "coordinates": [ -71.071472, 42.42432 ] } }
]
}
